{
	"id": "gr-160-e02",
	"name": "GR 160 E02 PUEBLA DE ARENOSO - MONTANEJOS",
	"type": "GR",
	"status": "con_reservas",
	"status_detail": "Sin controles de calidad",
	"municipality": "Puebla de Arenoso",
	"zone": "alto-mijares",
	"aemet_municipio": null,
	"start": {
		"lat": 40.103315971791744,
		"lon": -0.591228017583489,
		"name": "Calle Venta, 2. Puebla de Arenoso"
	},
	"end": {
		"lat": 40.068424036726356,
		"lon": -0.52400297485292
	},
	"distance_km": 14.5,
	"ascent_m": 750,
	"descent_m": 860,
	"circular": false,
	"difficulty_mide": {
		"medio": 2,
		"itinerario": 2,
		"desplazamiento": 1,
		"esfuerzo": 3
	},
	"est_duration_min": 280,
	"water_points": [
		"Fuente (km 0.0, a 14 m del track; OSM, no verificado en campo)",
		"Fuente (km 13.7, a 15 m del track; OSM, no verificado en campo)",
		"Fuente (km 13.8, a 27 m del track; OSM, no verificado en campo)",
		"Fuente (km 14.2, a 86 m del track; OSM, no verificado en campo)",
		"Fuente (km 14.2, a 68 m del track; OSM, no verificado en campo)"
	],
	"water_points_geo": [
		{
			"name": null,
			"kind": "fuente",
			"lat": 40.1032616,
			"lon": -0.591389,
			"km": 0,
			"dist_m": 14
		},
		{
			"name": null,
			"kind": "fuente",
			"lat": 40.0652447,
			"lon": -0.5275055,
			"km": 13.7,
			"dist_m": 15
		},
		{
			"name": null,
			"kind": "fuente",
			"lat": 40.0658013,
			"lon": -0.5269059,
			"km": 13.8,
			"dist_m": 27
		},
		{
			"name": null,
			"kind": "fuente",
			"lat": 40.0681908,
			"lon": -0.5229208,
			"km": 14.2,
			"dist_m": 86
		},
		{
			"name": null,
			"kind": "fuente",
			"lat": 40.0690223,
			"lon": -0.5241648,
			"km": 14.2,
			"dist_m": 68
		}
	],
	"pois": [
		{
			"name": "Peña de Giberte",
			"type": "cumbre",
			"lat": 40.0611756,
			"lon": -0.5776428,
			"km": 6.5,
			"dist_m": 134
		},
		{
			"name": "Buzón",
			"type": "patrimonio",
			"lat": 40.0650981,
			"lon": -0.5457109,
			"km": 10.4,
			"dist_m": 3
		}
	],
	"escape_routes": [],
	"highlights": [],
	"best_season": [],
	"best_start_time": null,
	"shade_ratio": 0.6,
	"gpx": "gr-160-e02.gpx",
	"links": {
		"femecv": "https://senders.femecv.com/es/sendero/ver/gr-160-e02",
		"wikiloc": null
	},
	"alternatives": [
		"sl-cv-57",
		"gr-160-e01",
		"gr-160"
	],
	"notes_rain": null,
	"bbox": [
		-0.596264032647014,
		40.061592031270266,
		-0.523933991789818,
		40.103315971791744
	],
	"sources": [
		"Ficha FEMECV https://senders.femecv.com/es/sendero/ver/gr-160-e02 (crawl 2026-06-11): nombre, estado \"Sin controles de calidad\", distancia, desniveles, horario teórico, MIDE, modalidad, municipio, comarca",
		"OSM Overpass (enrich 2026-06-20): fuentes de agua, sombra estimada y alternativas por proximidad — no verificado en campo",
		"GPX gr-160-e02.gpx (derivados: inicio, bbox)"
	],
	"federacion": "FEMECV",
	"comunidad": "Comunitat Valenciana",
	"capabilities": {
		"estado": true,
		"mide": true,
		"agua": true,
		"etapas": true,
		"descripcion": true,
		"fauna": true,
		"escapes": true
	}
}
