{
	"id": "gr-160-e03",
	"name": "GR 160 E03 MONTANEJOS - CAUDIEL",
	"type": "GR",
	"status": "con_reservas",
	"status_detail": "Sin controles de calidad",
	"municipality": "Montanejos",
	"zone": "alto-mijares",
	"aemet_municipio": null,
	"start": {
		"lat": 40.068424036726356,
		"lon": -0.52400297485292,
		"name": "Calle Carretera Valencia, 16. Montanejos"
	},
	"distance_km": 27,
	"ascent_m": 1135,
	"descent_m": 970,
	"circular": false,
	"difficulty_mide": {
		"medio": 2,
		"itinerario": 2,
		"desplazamiento": 2,
		"esfuerzo": 4
	},
	"est_duration_min": 475,
	"water_points": [
		"Fuente (km 0.0, a 68 m del track; OSM, no verificado en campo)",
		"Fuente (km 0.1, a 9 m del track; OSM, no verificado en campo)",
		"Manantial \"Fuente la Carrera\" (km 3.7, a 9 m del track; OSM, no verificado en campo)",
		"Fuente \"Fuente Bajo Castillo\" (km 7.3, a 7 m del track; OSM, no verificado en campo)",
		"Manantial \"Agua\" (km 7.3, a 11 m del track; OSM, no verificado en campo)",
		"Fuente \"Fuente La Tejería\" (km 8.4, a 22 m del track; OSM, no verificado en campo)",
		"Fuente (km 26.8, a 66 m del track; OSM, no verificado en campo)"
	],
	"water_points_geo": [
		{
			"name": null,
			"kind": "fuente",
			"lat": 40.0690223,
			"lon": -0.5241648,
			"km": 0,
			"dist_m": 68
		},
		{
			"name": null,
			"kind": "fuente",
			"lat": 40.0681908,
			"lon": -0.5229208,
			"km": 0.1,
			"dist_m": 9
		},
		{
			"name": "Fuente la Carrera",
			"kind": "manantial",
			"lat": 40.0448191,
			"lon": -0.5256103,
			"km": 3.7,
			"dist_m": 9
		},
		{
			"name": "Fuente Bajo Castillo",
			"kind": "fuente",
			"lat": 40.0369314,
			"lon": -0.5529172,
			"km": 7.3,
			"dist_m": 7
		},
		{
			"name": "Agua",
			"kind": "manantial",
			"lat": 40.0370188,
			"lon": -0.5527611,
			"km": 7.3,
			"dist_m": 11
		},
		{
			"name": "Fuente La Tejería",
			"kind": "fuente",
			"lat": 40.0351798,
			"lon": -0.5632863,
			"km": 8.4,
			"dist_m": 22
		},
		{
			"name": null,
			"kind": "fuente",
			"lat": 39.9481477,
			"lon": -0.5674593,
			"km": 26.8,
			"dist_m": 66
		}
	],
	"pois": [
		{
			"name": "Cerro Pachón",
			"type": "cumbre",
			"lat": 40.0345836,
			"lon": -0.5877919,
			"km": 10.8,
			"dist_m": 133
		},
		{
			"name": "Alto Pino Rey",
			"type": "cumbre",
			"lat": 40.0285659,
			"lon": -0.6017343,
			"km": 13.3,
			"dist_m": 33
		}
	],
	"escape_routes": [],
	"highlights": [],
	"best_season": [],
	"best_start_time": null,
	"shade_ratio": 0.01,
	"gpx": "gr-160-e03.gpx",
	"links": {
		"femecv": "https://senders.femecv.com/es/sendero/ver/gr-160-e03",
		"wikiloc": null
	},
	"alternatives": [
		"sl-cv-104",
		"gr-7-e33",
		"sl-cv-105"
	],
	"notes_rain": null,
	"bbox": [
		-0.611041998490691,
		39.94742698967457,
		-0.521654030308127,
		40.068424036726356
	],
	"sources": [
		"Ficha FEMECV https://senders.femecv.com/es/sendero/ver/gr-160-e03 (crawl 2026-06-11): nombre, estado \"Sin controles de calidad\", distancia, desniveles, horario teórico, MIDE, modalidad, municipio, comarca",
		"OSM Overpass (enrich 2026-06-20): fuentes de agua, sombra estimada y alternativas por proximidad — no verificado en campo",
		"GPX gr-160-e03.gpx (derivados: inicio, bbox)"
	]
}
