{
	"id": "gr-10-e06",
	"name": "GR 10 E06 SACAÑET - ANDILLA",
	"type": "GR",
	"status": "homologado",
	"status_detail": "Control de calidad positivo",
	"municipality": "Sacañet",
	"zone": "alto-palancia",
	"aemet_municipio": null,
	"start": {
		"lat": 39.85132201574743,
		"lon": -0.714286006987095,
		"name": "Sacañet"
	},
	"end": {
		"lat": 39.83564601279795,
		"lon": -0.812912005931139
	},
	"distance_km": 15,
	"ascent_m": 490,
	"descent_m": 615,
	"circular": false,
	"difficulty_mide": {
		"medio": 2,
		"itinerario": 2,
		"desplazamiento": 2,
		"esfuerzo": 3
	},
	"est_duration_min": 295,
	"water_points": [
		"Fuente (km 0.0, a 30 m del track; OSM, no verificado en campo)",
		"Fuente (km 0.4, a 78 m del track; OSM, no verificado en campo)",
		"Fuente \"Fuente del Señor\" (km 11.8, a 22 m del track; OSM, no verificado en campo)",
		"Fuente (km 14.9, a 47 m del track; OSM, no verificado en campo)"
	],
	"water_points_geo": [
		{
			"name": null,
			"kind": "fuente",
			"lat": 39.8513956,
			"lon": -0.7146516,
			"km": 0,
			"dist_m": 30
		},
		{
			"name": null,
			"kind": "fuente",
			"lat": 39.8496866,
			"lon": -0.7179852,
			"km": 0.4,
			"dist_m": 78
		},
		{
			"name": "Fuente del Señor",
			"kind": "fuente",
			"lat": 39.8556978,
			"lon": -0.7939585,
			"km": 11.8,
			"dist_m": 22
		},
		{
			"name": null,
			"kind": "fuente",
			"lat": 39.8358366,
			"lon": -0.813406,
			"km": 14.9,
			"dist_m": 47
		}
	],
	"pois": [
		{
			"name": "Lomica de en Medio",
			"type": "cumbre",
			"lat": 39.842421,
			"lon": -0.7364966,
			"km": 3.4,
			"dist_m": 93
		},
		{
			"name": "Bellida",
			"type": "cumbre",
			"lat": 39.8485969,
			"lon": -0.7401262,
			"km": 4.2,
			"dist_m": 90
		}
	],
	"escape_routes": [],
	"highlights": [],
	"best_season": [],
	"best_start_time": null,
	"shade_ratio": 0.06,
	"gpx": "gr-10-e06.gpx",
	"links": {
		"femecv": "https://senders.femecv.com/es/sendero/ver/gr-10-e06",
		"wikiloc": null
	},
	"alternatives": [
		"sl-cv-53",
		"sl-cv-55",
		"pr-cv-105"
	],
	"notes_rain": null,
	"bbox": [
		-0.812912005931139,
		39.83564601279795,
		-0.714286006987095,
		39.869925985112786
	],
	"sources": [
		"Ficha FEMECV https://senders.femecv.com/es/sendero/ver/gr-10-e06 (crawl 2026-06-11): nombre, estado \"Control de calidad positivo\", distancia, desniveles, horario teórico, MIDE, modalidad, municipio, comarca",
		"OSM Overpass (enrich 2026-06-20): fuentes de agua, sombra estimada y alternativas por proximidad — no verificado en campo",
		"GPX gr-10-e06.gpx (derivados: inicio, bbox)"
	]
}
