{
	"id": "gr-236-e03",
	"name": "GR 236 E03 PINET - LA BARRACA D'AIGÜES VIVES",
	"type": "GR",
	"status": "con_reservas",
	"status_detail": "Sin controles de calidad",
	"municipality": "Pinet",
	"zone": "vall-d-albaida",
	"aemet_municipio": null,
	"start": {
		"lat": 38.983271,
		"lon": -0.340368,
		"name": null
	},
	"end": {
		"lat": 39.100848,
		"lon": -0.368964
	},
	"distance_km": 22,
	"ascent_m": 450,
	"descent_m": 715,
	"circular": false,
	"difficulty_mide": {
		"medio": 2,
		"itinerario": 2,
		"desplazamiento": 2,
		"esfuerzo": 4
	},
	"est_duration_min": 400,
	"water_points": [
		"Fuente (km 0.0, a 12 m del track; OSM, no verificado en campo)",
		"Manantial \"Font del Gamelló\" (km 5.7, a 68 m del track; OSM, no verificado en campo)",
		"Fuente \"Font de la Betina\" (km 6.0, a 22 m del track; OSM, no verificado en campo)",
		"Fuente \"Font del Teular\" (km 6.0, a 89 m del track; OSM, no verificado en campo)",
		"Fuente (km 11.5, a 20 m del track; OSM, no verificado en campo)",
		"Fuente (km 11.5, a 38 m del track; OSM, no verificado en campo)",
		"Fuente (km 11.5, a 57 m del track; OSM, no verificado en campo)",
		"Fuente (km 21.9, a 34 m del track; OSM, no verificado en campo)"
	],
	"water_points_geo": [
		{
			"name": null,
			"kind": "fuente",
			"lat": 38.9832073,
			"lon": -0.3404739,
			"km": 0,
			"dist_m": 12
		},
		{
			"name": "Font del Gamelló",
			"kind": "manantial",
			"lat": 39.0114401,
			"lon": -0.3103839,
			"km": 5.7,
			"dist_m": 68
		},
		{
			"name": "Font de la Betina",
			"kind": "fuente",
			"lat": 39.0107723,
			"lon": -0.3071313,
			"km": 6,
			"dist_m": 22
		},
		{
			"name": "Font del Teular",
			"kind": "fuente",
			"lat": 39.0104152,
			"lon": -0.3061416,
			"km": 6,
			"dist_m": 89
		},
		{
			"name": null,
			"kind": "fuente",
			"lat": 39.0415802,
			"lon": -0.3075273,
			"km": 11.5,
			"dist_m": 20
		},
		{
			"name": null,
			"kind": "fuente",
			"lat": 39.0418705,
			"lon": -0.3073954,
			"km": 11.5,
			"dist_m": 38
		},
		{
			"name": null,
			"kind": "fuente",
			"lat": 39.042311,
			"lon": -0.3086614,
			"km": 11.5,
			"dist_m": 57
		},
		{
			"name": null,
			"kind": "fuente",
			"lat": 39.1004114,
			"lon": -0.3688909,
			"km": 21.9,
			"dist_m": 34
		}
	],
	"pois": [
		{
			"name": "Penya del Romaní",
			"type": "cumbre",
			"lat": 38.9889552,
			"lon": -0.3340463,
			"km": 1.3,
			"dist_m": 135
		},
		{
			"name": "Mirador de la Visteta",
			"type": "mirador",
			"lat": 39.0254296,
			"lon": -0.308587,
			"km": 8.9,
			"dist_m": 30
		},
		{
			"name": "Tarima del rio",
			"type": "mirador",
			"lat": 39.0424482,
			"lon": -0.3084083,
			"km": 11.5,
			"dist_m": 49
		}
	],
	"escape_routes": [],
	"highlights": [],
	"best_season": [],
	"best_start_time": null,
	"shade_ratio": 0.08,
	"gpx": "gr-236-e03.gpx",
	"links": {
		"femecv": "https://senders.femecv.com/es/sendero/ver/gr-236-e03",
		"wikiloc": null
	},
	"alternatives": [
		"sl-cv-39",
		"pr-cv-60",
		"pr-cv-434"
	],
	"notes_rain": null,
	"bbox": [
		-0.368964,
		38.983271,
		-0.302989,
		39.100848
	],
	"sources": [
		"Ficha FEMECV https://senders.femecv.com/es/sendero/ver/gr-236-e03 (crawl 2026-06-11): nombre, estado \"Sin controles de calidad\", distancia, desniveles, horario teórico, MIDE, modalidad, municipio, comarca",
		"OSM Overpass (enrich 2026-06-20): fuentes de agua, sombra estimada y alternativas por proximidad — no verificado en campo",
		"GPX gr-236-e03.gpx (derivados: inicio, bbox)"
	]
}
