{
	"id": "gr-236-e01",
	"name": "GR 236 E01 GANDIA - ALMISERÀ",
	"type": "GR",
	"status": "con_reservas",
	"status_detail": "Sin controles de calidad",
	"municipality": "Gandia",
	"zone": "safor",
	"aemet_municipio": null,
	"start": {
		"lat": 38.969862,
		"lon": -0.180039,
		"name": null
	},
	"end": {
		"lat": 38.917073,
		"lon": -0.285487
	},
	"distance_km": 19.1,
	"ascent_m": 255,
	"descent_m": 130,
	"circular": false,
	"difficulty_mide": {
		"medio": 2,
		"itinerario": 2,
		"desplazamiento": 2,
		"esfuerzo": 3
	},
	"est_duration_min": 310,
	"water_points": [
		"Fuente (km 0.5, a 71 m del track; OSM, no verificado en campo)",
		"Fuente (km 3.3, a 96 m del track; OSM, no verificado en campo)",
		"Fuente (km 13.3, a 13 m del track; OSM, no verificado en campo)",
		"Fuente (km 14.3, a 96 m del track; OSM, no verificado en campo)",
		"Fuente (km 19.1, a 16 m del track; OSM, no verificado en campo)"
	],
	"water_points_geo": [
		{
			"name": null,
			"kind": "fuente",
			"lat": 38.9662015,
			"lon": -0.1817041,
			"km": 0.5,
			"dist_m": 71
		},
		{
			"name": null,
			"kind": "fuente",
			"lat": 38.9434598,
			"lon": -0.1818764,
			"km": 3.3,
			"dist_m": 96
		},
		{
			"name": null,
			"kind": "fuente",
			"lat": 38.9325535,
			"lon": -0.254527,
			"km": 13.3,
			"dist_m": 13
		},
		{
			"name": null,
			"kind": "fuente",
			"lat": 38.9327147,
			"lon": -0.2590265,
			"km": 14.3,
			"dist_m": 96
		},
		{
			"name": null,
			"kind": "fuente",
			"lat": 38.9169435,
			"lon": -0.284887,
			"km": 19.1,
			"dist_m": 16
		}
	],
	"pois": [
		{
			"name": "Locomotora",
			"type": "patrimonio",
			"lat": 38.9697723,
			"lon": -0.1787121,
			"km": 0,
			"dist_m": 106
		},
		{
			"name": "Rei Jaume I",
			"type": "patrimonio",
			"lat": 38.966432,
			"lon": -0.1816534,
			"km": 0.4,
			"dist_m": 61
		},
		{
			"name": "Alfarerìa romana",
			"type": "patrimonio",
			"lat": 38.9391138,
			"lon": -0.1868598,
			"km": 3.9,
			"dist_m": 105
		},
		{
			"name": "Acueducto de Vistabella",
			"type": "patrimonio",
			"lat": 38.9308065,
			"lon": -0.2053284,
			"km": 6.7,
			"dist_m": 147
		},
		{
			"name": "Ceràmica a la Verge de la Salud",
			"type": "patrimonio",
			"lat": 38.9330904,
			"lon": -0.2590699,
			"km": 14.3,
			"dist_m": 130
		}
	],
	"escape_routes": [],
	"highlights": [],
	"best_season": [],
	"best_start_time": null,
	"shade_ratio": 0,
	"gpx": "gr-236-e01.gpx",
	"links": {
		"femecv": "https://senders.femecv.com/es/sendero/ver/gr-236-e01",
		"wikiloc": null
	},
	"alternatives": [
		"gr-236",
		"pr-cv-153",
		"sl-cv-60"
	],
	"notes_rain": null,
	"bbox": [
		-0.285859,
		38.915528,
		-0.178947,
		38.969862
	],
	"sources": [
		"Ficha FEMECV https://senders.femecv.com/es/sendero/ver/gr-236-e01 (crawl 2026-06-11): nombre, estado \"Sin controles de calidad\", distancia, desniveles, horario teórico, MIDE, modalidad, municipio, comarca",
		"OSM Overpass (enrich 2026-06-20): fuentes de agua, sombra estimada y alternativas por proximidad — no verificado en campo",
		"GPX gr-236-e01.gpx (derivados: inicio, bbox)"
	],
	"federacion": "FEMECV",
	"comunidad": "Comunitat Valenciana",
	"capabilities": {
		"estado": true,
		"mide": true,
		"agua": true,
		"etapas": true,
		"descripcion": true,
		"fauna": true,
		"escapes": true
	}
}
