{
	"id": "gr-331-e06",
	"name": "GR 331 E06 TODOLELLA - FORCALL",
	"type": "GR",
	"status": "con_reservas",
	"status_detail": "Control de calidad condicionado",
	"municipality": "Todolella",
	"zone": "ports",
	"aemet_municipio": null,
	"start": {
		"lat": 40.64495396800339,
		"lon": -0.245917998254299,
		"name": "CV-122. Entrada sur de la población. Todolella"
	},
	"end": {
		"lat": 40.646680975332856,
		"lon": -0.197235988453031
	},
	"distance_km": 8.5,
	"ascent_m": 265,
	"descent_m": 350,
	"circular": false,
	"difficulty_mide": {
		"medio": 2,
		"itinerario": 2,
		"desplazamiento": 2,
		"esfuerzo": 2
	},
	"est_duration_min": 165,
	"water_points": [
		"Fuente (km 0.2, a 68 m del track; OSM, no verificado en campo)"
	],
	"water_points_geo": [
		{
			"name": null,
			"kind": "fuente",
			"lat": 40.6460621,
			"lon": -0.2473463,
			"km": 0.2,
			"dist_m": 68
		}
	],
	"pois": [
		{
			"name": "Peiró de la Mare de Déu",
			"type": "patrimonio",
			"lat": 40.6437383,
			"lon": -0.2456881,
			"km": 0,
			"dist_m": 135
		},
		{
			"name": "Castell de la Todolella",
			"type": "patrimonio",
			"lat": 40.647612,
			"lon": -0.2459911,
			"km": 0.4,
			"dist_m": 45
		},
		{
			"name": "Peiró de Santa Caterina",
			"type": "patrimonio",
			"lat": 40.6500332,
			"lon": -0.2429701,
			"km": 0.8,
			"dist_m": 8
		}
	],
	"escape_routes": [],
	"highlights": [],
	"best_season": [],
	"best_start_time": null,
	"shade_ratio": 0.22,
	"gpx": "gr-331-e06.gpx",
	"links": {
		"femecv": "https://senders.femecv.com/es/sendero/ver/gr-331-e06",
		"wikiloc": null
	},
	"alternatives": [
		"pr-cv-244",
		"pr-cv-228",
		"pr-cv-117"
	],
	"notes_rain": null,
	"bbox": [
		-0.247048968449235,
		40.64495204016566,
		-0.197235988453031,
		40.66580403596163
	],
	"sources": [
		"Ficha FEMECV https://senders.femecv.com/es/sendero/ver/gr-331-e06 (crawl 2026-06-11): nombre, estado \"Control de calidad condicionado\", distancia, desniveles, horario teórico, MIDE, modalidad, municipio, comarca",
		"OSM Overpass (enrich 2026-06-20): fuentes de agua, sombra estimada y alternativas por proximidad — no verificado en campo",
		"GPX gr-331-e06.gpx (derivados: inicio, bbox)"
	],
	"federacion": "FEMECV",
	"comunidad": "Comunitat Valenciana",
	"capabilities": {
		"estado": true,
		"mide": true,
		"agua": true,
		"etapas": true,
		"descripcion": true,
		"fauna": true,
		"escapes": true
	}
}
