{
	"id": "gr-331-e11",
	"name": "GR 331 E11 CASTELL DE CABRES - VALLIBONA",
	"type": "GR",
	"status": "con_reservas",
	"status_detail": "Control de calidad condicionado",
	"municipality": "Castell de Cabres",
	"zone": "baix-maestrat",
	"aemet_municipio": null,
	"start": {
		"lat": 40.660532992333174,
		"lon": 0.043211979791522,
		"name": "Plaza de la Iglesia. Castell de Cabres"
	},
	"distance_km": 11.2,
	"ascent_m": 70,
	"descent_m": 515,
	"circular": false,
	"difficulty_mide": {
		"medio": 3,
		"itinerario": 2,
		"desplazamiento": 3,
		"esfuerzo": 3
	},
	"est_duration_min": 200,
	"water_points": [
		"Fuente \"Font de la Plaça\" (km 0.0, a 47 m del track; OSM, no verificado en campo)",
		"Manantial \"Font de la Gatellera\" (km 8.9, a 15 m del track; OSM, no verificado en campo)",
		"Fuente (km 11.2, a 31 m del track; OSM, no verificado en campo)",
		"Fuente (km 11.2, a 100 m del track; OSM, no verificado en campo)",
		"Fuente (km 11.2, a 49 m del track; OSM, no verificado en campo)"
	],
	"water_points_geo": [
		{
			"name": "Font de la Plaça",
			"kind": "fuente",
			"lat": 40.6608348,
			"lon": 0.0428232,
			"km": 0,
			"dist_m": 47
		},
		{
			"name": "Font de la Gatellera",
			"kind": "manantial",
			"lat": 40.618561,
			"lon": 0.0497887,
			"km": 8.9,
			"dist_m": 15
		},
		{
			"name": null,
			"kind": "fuente",
			"lat": 40.6032969,
			"lon": 0.0462376,
			"km": 11.2,
			"dist_m": 31
		},
		{
			"name": null,
			"kind": "fuente",
			"lat": 40.6029115,
			"lon": 0.0469821,
			"km": 11.2,
			"dist_m": 100
		},
		{
			"name": null,
			"kind": "fuente",
			"lat": 40.6028505,
			"lon": 0.0455741,
			"km": 11.2,
			"dist_m": 49
		}
	],
	"pois": [
		{
			"name": "Joaquín Gil Abella",
			"type": "patrimonio",
			"lat": 40.6602633,
			"lon": 0.0431375,
			"km": 0,
			"dist_m": 20
		},
		{
			"name": "Prigó de Sant Abdó i Sant Senent",
			"type": "patrimonio",
			"lat": 40.6607399,
			"lon": 0.0451601,
			"km": 0.2,
			"dist_m": 6
		},
		{
			"name": "Mirador de la Placeta",
			"type": "mirador",
			"lat": 40.6028629,
			"lon": 0.04626,
			"km": 11.2,
			"dist_m": 52
		},
		{
			"name": "el Portal",
			"type": "patrimonio",
			"lat": 40.60302,
			"lon": 0.0460313,
			"km": 11.2,
			"dist_m": 26
		}
	],
	"escape_routes": [],
	"highlights": [],
	"best_season": [],
	"best_start_time": null,
	"shade_ratio": 0.04,
	"gpx": "gr-331-e11.gpx",
	"links": {
		"femecv": "https://senders.femecv.com/es/sendero/ver/gr-331-e11",
		"wikiloc": null
	},
	"alternatives": [
		"gr-331-e10",
		"gr-331-e12",
		"gr-7-e26"
	],
	"notes_rain": null,
	"bbox": [
		0.043211979791522,
		40.60322700999677,
		0.06492898799479,
		40.66138098947704
	],
	"sources": [
		"Ficha FEMECV https://senders.femecv.com/es/sendero/ver/gr-331-e11 (crawl 2026-06-11): nombre, estado \"Control de calidad condicionado\", distancia, desniveles, horario teórico, MIDE, modalidad, municipio, comarca",
		"OSM Overpass (enrich 2026-06-20): fuentes de agua, sombra estimada y alternativas por proximidad — no verificado en campo",
		"GPX gr-331-e11.gpx (derivados: inicio, bbox)"
	]
}
