{
	"id": "gr-332-e02",
	"name": "GR 332 E02 GR 332 E02 NAVARRÉS - BICORP",
	"type": "GR",
	"status": "homologado",
	"status_detail": "Control de calidad positivo",
	"municipality": "Navarrés",
	"zone": "canal-de-navarres",
	"aemet_municipio": null,
	"start": {
		"lat": 39.099714,
		"lon": -0.69602,
		"name": "C/ de la Iglesia, 35. Navarres"
	},
	"end": {
		"lat": 39.130298,
		"lon": -0.786887
	},
	"distance_km": 19,
	"ascent_m": 520,
	"descent_m": 490,
	"circular": false,
	"difficulty_mide": {
		"medio": 2,
		"itinerario": 2,
		"desplazamiento": 2,
		"esfuerzo": 3
	},
	"est_duration_min": 350,
	"water_points": [
		"Fuente (km 18.2, a 26 m del track; OSM, no verificado en campo)",
		"Fuente (km 18.7, a 12 m del track; OSM, no verificado en campo)"
	],
	"water_points_geo": [
		{
			"name": null,
			"kind": "fuente",
			"lat": 39.1318366,
			"lon": -0.790069,
			"km": 18.2,
			"dist_m": 26
		},
		{
			"name": null,
			"kind": "fuente",
			"lat": 39.1317985,
			"lon": -0.7874775,
			"km": 18.7,
			"dist_m": 12
		}
	],
	"pois": [
		{
			"name": "Altico Redondo",
			"type": "cumbre",
			"lat": 39.1201819,
			"lon": -0.7157233,
			"km": 5.1,
			"dist_m": 145
		},
		{
			"name": "Pico los Alticos",
			"type": "cumbre",
			"lat": 39.122314,
			"lon": -0.7276345,
			"km": 6.7,
			"dist_m": 101
		},
		{
			"name": "Los Albaidares",
			"type": "cumbre",
			"lat": 39.12891,
			"lon": -0.7493683,
			"km": 11.4,
			"dist_m": 102
		}
	],
	"escape_routes": [],
	"highlights": [],
	"best_season": [],
	"best_start_time": null,
	"shade_ratio": 0.06,
	"gpx": "gr-332-e02.gpx",
	"links": {
		"femecv": "https://senders.femecv.com/es/sendero/ver/gr-332-e02",
		"wikiloc": null
	},
	"alternatives": [
		"sl-cv-137",
		"pr-cv-420",
		"pr-cv-204"
	],
	"notes_rain": null,
	"bbox": [
		-0.790196,
		39.099608,
		-0.693374,
		39.144229
	],
	"sources": [
		"Ficha FEMECV https://senders.femecv.com/es/sendero/ver/gr-332-e02 (crawl 2026-06-11): nombre, estado \"Control de calidad positivo\", distancia, desniveles, horario teórico, MIDE, modalidad, municipio, comarca",
		"OSM Overpass (enrich 2026-06-20): fuentes de agua, sombra estimada y alternativas por proximidad — no verificado en campo",
		"GPX gr-332-e02.gpx (derivados: inicio, bbox)"
	]
}
