{
	"id": "gr-333-e07",
	"name": "GR 333 E07 FUENTES DE AYÓDAR - AYÓDAR",
	"type": "GR",
	"status": "homologado",
	"status_detail": "En vigor",
	"municipality": "Fuentes de Ayodar",
	"zone": "alto-mijares",
	"aemet_municipio": null,
	"start": {
		"lat": 40.02013899385929,
		"lon": -0.418014982715249,
		"name": "Carretera CV-205 frente Hotel Las Viñas Viejas. Fuentes de Ayódar"
	},
	"end": {
		"lat": 39.99897804111242,
		"lon": -0.374608039855957
	},
	"distance_km": 6.5,
	"ascent_m": 210,
	"descent_m": 335,
	"circular": false,
	"difficulty_mide": {
		"medio": 2,
		"itinerario": 2,
		"desplazamiento": 2,
		"esfuerzo": 2
	},
	"est_duration_min": 130,
	"water_points": [
		"Fuente (km 0.0, a 99 m del track; OSM, no verificado en campo)",
		"Fuente (km 0.2, a 31 m del track; OSM, no verificado en campo)",
		"Fuente (km 6.0, a 10 m del track; OSM, no verificado en campo)",
		"Fuente (km 6.3, a 21 m del track; OSM, no verificado en campo)",
		"Manantial \"Fuente El Turio\" (km 6.4, a 16 m del track; OSM, no verificado en campo)",
		"Fuente \"Fuente Rita\" (km 6.4, a 17 m del track; OSM, no verificado en campo)",
		"Fuente (km 6.4, a 35 m del track; OSM, no verificado en campo)",
		"Fuente (km 6.4, a 50 m del track; OSM, no verificado en campo)",
		"Fuente (km 6.4, a 52 m del track; OSM, no verificado en campo)"
	],
	"water_points_geo": [
		{
			"name": null,
			"kind": "fuente",
			"lat": 40.0202963,
			"lon": -0.4191609,
			"km": 0,
			"dist_m": 99
		},
		{
			"name": null,
			"kind": "fuente",
			"lat": 40.018784,
			"lon": -0.417669,
			"km": 0.2,
			"dist_m": 31
		},
		{
			"name": null,
			"kind": "fuente",
			"lat": 39.9999441,
			"lon": -0.3761154,
			"km": 6,
			"dist_m": 10
		},
		{
			"name": null,
			"kind": "fuente",
			"lat": 39.9983816,
			"lon": -0.3752567,
			"km": 6.3,
			"dist_m": 21
		},
		{
			"name": null,
			"kind": "fuente",
			"lat": 39.9990504,
			"lon": -0.374185,
			"km": 6.4,
			"dist_m": 35
		},
		{
			"name": null,
			"kind": "fuente",
			"lat": 39.9992334,
			"lon": -0.3741208,
			"km": 6.4,
			"dist_m": 50
		},
		{
			"name": "Fuente Rita",
			"kind": "fuente",
			"lat": 39.9985893,
			"lon": -0.3743978,
			"km": 6.4,
			"dist_m": 17
		},
		{
			"name": null,
			"kind": "fuente",
			"lat": 39.9992853,
			"lon": -0.3750645,
			"km": 6.4,
			"dist_m": 52
		},
		{
			"name": "Fuente El Turio",
			"kind": "manantial",
			"lat": 39.9985764,
			"lon": -0.3744156,
			"km": 6.4,
			"dist_m": 16
		}
	],
	"pois": [
		{
			"name": "El Castillico",
			"type": "patrimonio",
			"lat": 40.0087081,
			"lon": -0.3942794,
			"km": 3.1,
			"dist_m": 16
		}
	],
	"escape_routes": [],
	"highlights": [],
	"best_season": [],
	"best_start_time": null,
	"shade_ratio": null,
	"gpx": "gr-333-e07.gpx",
	"links": {
		"femecv": "https://senders.femecv.com/es/sendero/ver/gr-333-e07",
		"wikiloc": null
	},
	"alternatives": [
		"gr-333-e10",
		"gr-333-e06",
		"sl-cv-103"
	],
	"notes_rain": null,
	"bbox": [
		-0.418014982715249,
		39.99811897985637,
		-0.374568980187178,
		40.02013899385929
	],
	"sources": [
		"Ficha FEMECV https://senders.femecv.com/es/sendero/ver/gr-333-e07 (crawl 2026-06-11): nombre, estado \"En vigor\", distancia, desniveles, horario teórico, MIDE, modalidad, municipio, comarca",
		"OSM Overpass (enrich 2026-06-20): fuentes de agua, sombra estimada y alternativas por proximidad — no verificado en campo",
		"GPX gr-333-e07.gpx (derivados: inicio, bbox)"
	],
	"federacion": "FEMECV",
	"comunidad": "Comunitat Valenciana",
	"capabilities": {
		"estado": true,
		"mide": true,
		"agua": true,
		"etapas": true,
		"descripcion": true,
		"fauna": true,
		"escapes": true
	}
}
