{
	"id": "gr-331-e12",
	"name": "GR 331 E12 VALLIBONA - VALLIVANA",
	"type": "GR",
	"status": "con_reservas",
	"status_detail": "Control de calidad condicionado",
	"municipality": "Vallibona",
	"zone": "ports",
	"aemet_municipio": null,
	"start": {
		"lat": 40.60326296836138,
		"lon": 0.045995023101568,
		"name": "Plaza de San Antonio. Vallibona"
	},
	"end": {
		"lat": 40.5397719796747,
		"lon": 0.054132007062435
	},
	"distance_km": 11.8,
	"ascent_m": 610,
	"descent_m": 615,
	"circular": false,
	"difficulty_mide": {
		"medio": 3,
		"itinerario": 3,
		"desplazamiento": 2,
		"esfuerzo": 3
	},
	"est_duration_min": 255,
	"water_points": [
		"Fuente (km 0.0, a 58 m del track; OSM, no verificado en campo)",
		"Fuente (km 0.0, a 2 m del track; OSM, no verificado en campo)",
		"Fuente (km 0.1, a 3 m del track; OSM, no verificado en campo)",
		"Fuente (km 0.2, a 6 m del track; OSM, no verificado en campo)",
		"Fuente (km 0.3, a 3 m del track; OSM, no verificado en campo)",
		"Manantial \"Font Vella\" (km 0.4, a 2 m del track; OSM, no verificado en campo)",
		"Manantial \"Fonteta dels Grillos\" (km 1.3, a 43 m del track; OSM, no verificado en campo)",
		"Fuente (km 11.7, a 64 m del track; OSM, no verificado en campo)"
	],
	"water_points_geo": [
		{
			"name": null,
			"kind": "fuente",
			"lat": 40.6032969,
			"lon": 0.0462376,
			"km": 0,
			"dist_m": 2
		},
		{
			"name": null,
			"kind": "fuente",
			"lat": 40.6028505,
			"lon": 0.0455741,
			"km": 0,
			"dist_m": 58
		},
		{
			"name": null,
			"kind": "fuente",
			"lat": 40.6029115,
			"lon": 0.0469821,
			"km": 0.1,
			"dist_m": 3
		},
		{
			"name": null,
			"kind": "fuente",
			"lat": 40.6024851,
			"lon": 0.0475361,
			"km": 0.2,
			"dist_m": 6
		},
		{
			"name": null,
			"kind": "fuente",
			"lat": 40.6020672,
			"lon": 0.0480185,
			"km": 0.3,
			"dist_m": 3
		},
		{
			"name": "Font Vella",
			"kind": "manantial",
			"lat": 40.6017374,
			"lon": 0.0484034,
			"km": 0.4,
			"dist_m": 2
		},
		{
			"name": "Fonteta dels Grillos",
			"kind": "manantial",
			"lat": 40.5965294,
			"lon": 0.0539504,
			"km": 1.3,
			"dist_m": 43
		},
		{
			"name": null,
			"kind": "fuente",
			"lat": 40.5399894,
			"lon": 0.053433,
			"km": 11.7,
			"dist_m": 64
		}
	],
	"pois": [
		{
			"name": "el Portal",
			"type": "patrimonio",
			"lat": 40.60302,
			"lon": 0.0460313,
			"km": 0,
			"dist_m": 17
		},
		{
			"name": "Mirador de la Placeta",
			"type": "mirador",
			"lat": 40.6028629,
			"lon": 0.04626,
			"km": 0.1,
			"dist_m": 11
		},
		{
			"name": "el Peironet",
			"type": "patrimonio",
			"lat": 40.6026328,
			"lon": 0.0492212,
			"km": 0.5,
			"dist_m": 76
		},
		{
			"name": "Mirador del Peironet",
			"type": "mirador",
			"lat": 40.6026132,
			"lon": 0.0492705,
			"km": 0.5,
			"dist_m": 74
		},
		{
			"name": "Peiró de Baix",
			"type": "patrimonio",
			"lat": 40.5392699,
			"lon": 0.056148,
			"km": 11.6,
			"dist_m": 9
		}
	],
	"escape_routes": [],
	"highlights": [],
	"best_season": [],
	"best_start_time": null,
	"shade_ratio": 0.2,
	"gpx": "gr-331-e12.gpx",
	"links": {
		"femecv": "https://senders.femecv.com/es/sendero/ver/gr-331-e12",
		"wikiloc": null
	},
	"alternatives": [
		"gr-7-e26",
		"gr-331-e11",
		"gr-331-e13"
	],
	"notes_rain": null,
	"bbox": [
		0.045995023101568,
		40.53713402710855,
		0.075489012524486,
		40.60330403968692
	],
	"sources": [
		"Ficha FEMECV https://senders.femecv.com/es/sendero/ver/gr-331-e12 (crawl 2026-06-11): nombre, estado \"Control de calidad condicionado\", distancia, desniveles, horario teórico, MIDE, modalidad, municipio, comarca",
		"OSM Overpass (enrich 2026-06-20): fuentes de agua, sombra estimada y alternativas por proximidad — no verificado en campo",
		"GPX gr-331-e12.gpx (derivados: inicio, bbox)"
	]
}
