{
	"id": "gr-332-e01",
	"name": "GR 332 E01 GR 332 E01 ESTUBENY - NAVARRÉS",
	"type": "GR",
	"status": "homologado",
	"status_detail": "Control de calidad positivo",
	"municipality": "Estubeny",
	"zone": "costera",
	"aemet_municipio": null,
	"start": {
		"lat": 39.01772397570312,
		"lon": -0.62302895821631,
		"name": "Cruce C/ San Antonio con C/ Diputacion. Estubeny"
	},
	"distance_km": 24.4,
	"ascent_m": 575,
	"descent_m": 485,
	"circular": false,
	"difficulty_mide": {
		"medio": 2,
		"itinerario": 2,
		"desplazamiento": 2,
		"esfuerzo": 4
	},
	"est_duration_min": 440,
	"water_points": [
		"Manantial \"Font del Llavador\" (km 0.1, a 35 m del track; OSM, no verificado en campo)",
		"Manantial \"Fuente Tía Rulla\" (km 0.8, a 25 m del track; OSM, no verificado en campo)",
		"Manantial \"Fuente del Tío Marcelino\" (km 1.1, a 5 m del track; OSM, no verificado en campo)",
		"Fuente \"Fuente de Santa Maria\" (km 4.7, a 2 m del track; OSM, no verificado en campo)",
		"Fuente \"Fuente de Abajo\" (km 5.1, a 2 m del track; OSM, no verificado en campo)",
		"Fuente \"Fuente de Arriba\" (km 5.2, a 4 m del track; OSM, no verificado en campo)",
		"Fuente (km 10.2, a 17 m del track; OSM, no verificado en campo)",
		"Fuente (km 10.4, a 9 m del track; OSM, no verificado en campo)",
		"Fuente (km 10.5, a 9 m del track; OSM, no verificado en campo)",
		"Fuente (km 10.9, a 7 m del track; OSM, no verificado en campo)",
		"Fuente (km 11.2, a 9 m del track; OSM, no verificado en campo)",
		"Fuente (km 11.7, a 6 m del track; OSM, no verificado en campo)",
		"Fuente (km 15.2, a 9 m del track; OSM, no verificado en campo)",
		"Fuente (km 21.1, a 34 m del track; OSM, no verificado en campo)"
	],
	"water_points_geo": [
		{
			"name": "Font del Llavador",
			"kind": "manantial",
			"lat": 39.0183578,
			"lon": -0.6237819,
			"km": 0.1,
			"dist_m": 35
		},
		{
			"name": "Fuente Tía Rulla",
			"kind": "manantial",
			"lat": 39.019988,
			"lon": -0.6234171,
			"km": 0.8,
			"dist_m": 25
		},
		{
			"name": "Fuente del Tío Marcelino",
			"kind": "manantial",
			"lat": 39.0194201,
			"lon": -0.625052,
			"km": 1.1,
			"dist_m": 5
		},
		{
			"name": "Fuente de Santa Maria",
			"kind": "fuente",
			"lat": 39.0221572,
			"lon": -0.6429113,
			"km": 4.7,
			"dist_m": 2
		},
		{
			"name": "Fuente de Abajo",
			"kind": "fuente",
			"lat": 39.0231148,
			"lon": -0.6461723,
			"km": 5.1,
			"dist_m": 2
		},
		{
			"name": "Fuente de Arriba",
			"kind": "fuente",
			"lat": 39.0244605,
			"lon": -0.6467015,
			"km": 5.2,
			"dist_m": 4
		},
		{
			"name": null,
			"kind": "fuente",
			"lat": 39.0419115,
			"lon": -0.6573492,
			"km": 10.2,
			"dist_m": 17
		},
		{
			"name": null,
			"kind": "fuente",
			"lat": 39.0413222,
			"lon": -0.6590761,
			"km": 10.4,
			"dist_m": 9
		},
		{
			"name": null,
			"kind": "fuente",
			"lat": 39.0418198,
			"lon": -0.6594415,
			"km": 10.5,
			"dist_m": 9
		},
		{
			"name": null,
			"kind": "fuente",
			"lat": 39.0445165,
			"lon": -0.6616803,
			"km": 10.9,
			"dist_m": 7
		},
		{
			"name": null,
			"kind": "fuente",
			"lat": 39.0452376,
			"lon": -0.6600766,
			"km": 11.2,
			"dist_m": 9
		},
		{
			"name": null,
			"kind": "fuente",
			"lat": 39.0471133,
			"lon": -0.6620187,
			"km": 11.7,
			"dist_m": 6
		},
		{
			"name": null,
			"kind": "fuente",
			"lat": 39.060968,
			"lon": -0.6740408,
			"km": 15.2,
			"dist_m": 9
		},
		{
			"name": null,
			"kind": "fuente",
			"lat": 39.0789433,
			"lon": -0.6986587,
			"km": 21.1,
			"dist_m": 34
		}
	],
	"pois": [
		{
			"name": "Mirador del Salto de Chella",
			"type": "mirador",
			"lat": 39.0454193,
			"lon": -0.6600673,
			"km": 11.2,
			"dist_m": 2
		},
		{
			"name": "Mirador de las Cuevas del Turco",
			"type": "mirador",
			"lat": 39.0502242,
			"lon": -0.660319,
			"km": 12.2,
			"dist_m": 99
		}
	],
	"escape_routes": [],
	"highlights": [],
	"best_season": [],
	"best_start_time": null,
	"shade_ratio": 0.08,
	"gpx": "gr-332-e01.gpx",
	"links": {
		"femecv": "https://senders.femecv.com/es/sendero/ver/gr-332-e01",
		"wikiloc": null
	},
	"alternatives": [
		"gr-332",
		"pr-cv-113",
		"sl-cv-6"
	],
	"notes_rain": null,
	"bbox": [
		-0.701042013242841,
		39.01426803320646,
		-0.620369967073202,
		39.09967300482094
	],
	"sources": [
		"Ficha FEMECV https://senders.femecv.com/es/sendero/ver/gr-332-e01 (crawl 2026-06-11): nombre, estado \"Control de calidad positivo\", distancia, desniveles, horario teórico, MIDE, modalidad, municipio, comarca",
		"OSM Overpass (enrich 2026-06-20): fuentes de agua, sombra estimada y alternativas por proximidad — no verificado en campo",
		"GPX gr-332-e01.gpx (derivados: inicio, bbox)"
	]
}
