{
	"id": "gr-36-e02",
	"name": "GR 36 E02 ESLIDA - AÍN",
	"type": "GR",
	"status": "con_reservas",
	"status_detail": "Sin controles de calidad",
	"municipality": "Eslida",
	"zone": "plana-baixa",
	"aemet_municipio": null,
	"start": {
		"lat": 39.87930701114237,
		"lon": -0.308080036193132,
		"name": "Plaça de l'Ajuntament. Eslida"
	},
	"end": {
		"lat": 39.901219652965665,
		"lon": -0.341970752924681
	},
	"distance_km": 7.1,
	"ascent_m": 420,
	"descent_m": 300,
	"circular": false,
	"difficulty_mide": {
		"medio": 2,
		"itinerario": 2,
		"desplazamiento": 2,
		"esfuerzo": 2
	},
	"est_duration_min": 155,
	"water_points": [
		"Fuente (km 0.0, a 4 m del track; OSM, no verificado en campo)",
		"Manantial \"Font de la Figuera\" (km 1.9, a 8 m del track; OSM, no verificado en campo)",
		"Manantial \"Font dels Noguerals\" (km 4.2, a 13 m del track; OSM, no verificado en campo)",
		"Manantial \"Font de la Caritat\" (km 5.5, a 11 m del track; OSM, no verificado en campo)",
		"Manantial \"Font de l' Arquet (seca)\" (km 6.2, a 20 m del track; OSM, no verificado en campo)",
		"Manantial \"Font de l'Avellaner\" (km 6.5, a 37 m del track; OSM, no verificado en campo)",
		"Fuente \"Fuente de los Dos Caños\" (km 6.9, a 99 m del track; OSM, no verificado en campo)",
		"Fuente (km 7.1, a 7 m del track; OSM, no verificado en campo)"
	],
	"water_points_geo": [
		{
			"name": null,
			"kind": "fuente",
			"lat": 39.8792887,
			"lon": -0.3080348,
			"km": 0,
			"dist_m": 4
		},
		{
			"name": "Font de la Figuera",
			"kind": "manantial",
			"lat": 39.8803532,
			"lon": -0.3254488,
			"km": 1.9,
			"dist_m": 8
		},
		{
			"name": "Font dels Noguerals",
			"kind": "manantial",
			"lat": 39.8809606,
			"lon": -0.343375,
			"km": 4.2,
			"dist_m": 13
		},
		{
			"name": "Font de la Caritat",
			"kind": "manantial",
			"lat": 39.8910131,
			"lon": -0.3457366,
			"km": 5.5,
			"dist_m": 11
		},
		{
			"name": "Font de l' Arquet (seca)",
			"kind": "manantial",
			"lat": 39.8959692,
			"lon": -0.3441822,
			"km": 6.2,
			"dist_m": 20
		},
		{
			"name": "Font de l'Avellaner",
			"kind": "manantial",
			"lat": 39.8978839,
			"lon": -0.3426994,
			"km": 6.5,
			"dist_m": 37
		},
		{
			"name": "Fuente de los Dos Caños",
			"kind": "fuente",
			"lat": 39.900437,
			"lon": -0.3403491,
			"km": 6.9,
			"dist_m": 99
		},
		{
			"name": null,
			"kind": "fuente",
			"lat": 39.901244,
			"lon": -0.3420523,
			"km": 7.1,
			"dist_m": 7
		}
	],
	"pois": [],
	"escape_routes": [],
	"highlights": [],
	"best_season": [],
	"best_start_time": null,
	"shade_ratio": 0,
	"gpx": "gr-36-e02.gpx",
	"links": {
		"femecv": "https://senders.femecv.com/es/sendero/ver/gr-36-e02",
		"wikiloc": null
	},
	"alternatives": [
		"sl-cv-101",
		"pr-cv-138",
		"pr-cv-352"
	],
	"notes_rain": null,
	"bbox": [
		-0.346992015838623,
		39.878879031166434,
		-0.308080036193132,
		39.901219652965665
	],
	"sources": [
		"Ficha FEMECV https://senders.femecv.com/es/sendero/ver/gr-36-e02 (crawl 2026-06-11): nombre, estado \"Sin controles de calidad\", distancia, desniveles, horario teórico, MIDE, modalidad, municipio, comarca",
		"OSM Overpass (enrich 2026-06-20): fuentes de agua, sombra estimada y alternativas por proximidad — no verificado en campo",
		"GPX gr-36-e02.gpx (derivados: inicio, bbox)"
	]
}
