{
	"id": "gr-331-e07",
	"name": "GR 331 E07 FORCALL - VILLORES - XIVA DE MORELLA",
	"type": "GR",
	"status": "homologado",
	"status_detail": "Control de calidad positivo",
	"municipality": "Forcall",
	"zone": "ports",
	"aemet_municipio": null,
	"start": {
		"lat": 40.646683992818,
		"lon": -0.197213022038341,
		"name": "Avda. Tercer Centenari. Forcall"
	},
	"end": {
		"lat": 40.657721031457186,
		"lon": -0.123867010697722
	},
	"distance_km": 15,
	"ascent_m": 465,
	"descent_m": 265,
	"circular": false,
	"difficulty_mide": {
		"medio": 2,
		"itinerario": 2,
		"desplazamiento": 2,
		"esfuerzo": 3
	},
	"est_duration_min": 275,
	"water_points": [
		"Manantial \"la Font\" (km 4.3, a 6 m del track; OSM, no verificado en campo)",
		"Fuente (km 4.5, a 6 m del track; OSM, no verificado en campo)",
		"Fuente (km 4.6, a 4 m del track; OSM, no verificado en campo)",
		"Manantial \"Font del Pont\" (km 12.9, a 11 m del track; OSM, no verificado en campo)",
		"Manantial \"Font dels Llavadors\" (km 14.9, a 50 m del track; OSM, no verificado en campo)"
	],
	"water_points_geo": [
		{
			"name": "la Font",
			"kind": "manantial",
			"lat": 40.6736234,
			"lon": -0.2013684,
			"km": 4.3,
			"dist_m": 6
		},
		{
			"name": null,
			"kind": "fuente",
			"lat": 40.6757089,
			"lon": -0.2009078,
			"km": 4.5,
			"dist_m": 6
		},
		{
			"name": null,
			"kind": "fuente",
			"lat": 40.6761072,
			"lon": -0.2006296,
			"km": 4.6,
			"dist_m": 4
		},
		{
			"name": "Font del Pont",
			"kind": "manantial",
			"lat": 40.6646208,
			"lon": -0.1448664,
			"km": 12.9,
			"dist_m": 11
		},
		{
			"name": "Font dels Llavadors",
			"kind": "manantial",
			"lat": 40.6581582,
			"lon": -0.1248659,
			"km": 14.9,
			"dist_m": 50
		}
	],
	"pois": [
		{
			"name": "Peiró de la Consolacioneta",
			"type": "patrimonio",
			"lat": 40.6486609,
			"lon": -0.1925732,
			"km": 0.6,
			"dist_m": 144
		},
		{
			"name": "Capelleta del Carme",
			"type": "patrimonio",
			"lat": 40.6895569,
			"lon": -0.1772397,
			"km": 8.1,
			"dist_m": 4
		},
		{
			"name": "Peiró de Ferro",
			"type": "patrimonio",
			"lat": 40.6878123,
			"lon": -0.178631,
			"km": 8.3,
			"dist_m": 43
		},
		{
			"name": "Creu del Pont",
			"type": "patrimonio",
			"lat": 40.6577343,
			"lon": -0.1238774,
			"km": 15.1,
			"dist_m": 2
		}
	],
	"escape_routes": [],
	"highlights": [],
	"best_season": [],
	"best_start_time": null,
	"shade_ratio": 0.05,
	"gpx": "gr-331-e07.gpx",
	"links": {
		"femecv": "https://senders.femecv.com/es/sendero/ver/gr-331-e07",
		"wikiloc": null
	},
	"alternatives": [
		"pr-cv-322",
		"pr-cv-117",
		"gr-331-e06"
	],
	"notes_rain": null,
	"bbox": [
		-0.201325016096234,
		40.64653999172151,
		-0.123631982132792,
		40.69148099049926
	],
	"sources": [
		"Ficha FEMECV https://senders.femecv.com/es/sendero/ver/gr-331-e07 (crawl 2026-06-11): nombre, estado \"Control de calidad positivo\", distancia, desniveles, horario teórico, MIDE, modalidad, municipio, comarca",
		"OSM Overpass (enrich 2026-06-20): fuentes de agua, sombra estimada y alternativas por proximidad — no verificado en campo",
		"GPX gr-331-e07.gpx (derivados: inicio, bbox)"
	]
}
