{
	"id": "gr-7-e42",
	"name": "GR 7 E42 CORTES DE PALLÁS - COLLADO CAROCHE",
	"type": "GR",
	"status": "homologado",
	"status_detail": "Control de calidad positivo",
	"municipality": "Cortes de Pallás",
	"zone": "valle-de-ayora",
	"aemet_municipio": null,
	"start": {
		"lat": 39.24093497917056,
		"lon": -0.941744958981872,
		"name": "Ctra. la Muela, 38. Cortes de Pallás"
	},
	"distance_km": 31,
	"ascent_m": 1030,
	"descent_m": 440,
	"circular": false,
	"difficulty_mide": {
		"medio": 2,
		"itinerario": 2,
		"desplazamiento": 2,
		"esfuerzo": 4
	},
	"est_duration_min": 565,
	"water_points": [
		"Manantial \"Fuente del Chapole\" (km 0.1, a 5 m del track; OSM, no verificado en campo)",
		"Fuente (km 0.4, a 42 m del track; OSM, no verificado en campo)",
		"Manantial \"Fuente de las Huertecillas\" (km 11.4, a 2 m del track; OSM, no verificado en campo)",
		"Manantial \"Fuente del Collado\" (km 30.9, a 16 m del track; OSM, no verificado en campo)"
	],
	"water_points_geo": [
		{
			"name": "Fuente del Chapole",
			"kind": "manantial",
			"lat": 39.2407493,
			"lon": -0.9426003,
			"km": 0.1,
			"dist_m": 5
		},
		{
			"name": null,
			"kind": "fuente",
			"lat": 39.2412493,
			"lon": -0.9451012,
			"km": 0.4,
			"dist_m": 42
		},
		{
			"name": "Fuente de las Huertecillas",
			"kind": "manantial",
			"lat": 39.2098868,
			"lon": -0.994237,
			"km": 11.4,
			"dist_m": 2
		},
		{
			"name": "Fuente del Collado",
			"kind": "manantial",
			"lat": 39.0935104,
			"lon": -0.9204955,
			"km": 30.9,
			"dist_m": 16
		}
	],
	"pois": [
		{
			"name": "Los Atascadores",
			"type": "cumbre",
			"lat": 39.2411368,
			"lon": -0.9545326,
			"km": 2,
			"dist_m": 148
		},
		{
			"name": "Pico del Carrascal",
			"type": "cumbre",
			"lat": 39.2288002,
			"lon": -1.0003591,
			"km": 8,
			"dist_m": 140
		},
		{
			"name": "Puntal de Sácaras",
			"type": "cumbre",
			"lat": 39.2295786,
			"lon": -1.0047778,
			"km": 8.5,
			"dist_m": 60
		}
	],
	"escape_routes": [],
	"highlights": [],
	"best_season": [],
	"best_start_time": null,
	"shade_ratio": 0.01,
	"gpx": "gr-7-e42.gpx",
	"links": {
		"femecv": "https://senders.femecv.com/es/sendero/ver/gr-7-e42",
		"wikiloc": null
	},
	"alternatives": [
		"pr-cv-381",
		"pr-cv-380",
		"pr-cv-379"
	],
	"notes_rain": null,
	"bbox": [
		-1.004469003528357,
		39.09335003234446,
		-0.920655000954866,
		39.24354996532202
	],
	"sources": [
		"Ficha FEMECV https://senders.femecv.com/es/sendero/ver/gr-7-e42 (crawl 2026-06-11): nombre, estado \"Control de calidad positivo\", distancia, desniveles, horario teórico, MIDE, modalidad, municipio, comarca",
		"OSM Overpass (enrich 2026-06-20): fuentes de agua, sombra estimada y alternativas por proximidad — no verificado en campo",
		"GPX gr-7-e42.gpx (derivados: inicio, bbox)"
	]
}
