{
	"id": "gr-7-e25",
	"name": "GR 7 E25 FREDES - VALLIBONA",
	"type": "GR",
	"status": "homologado",
	"status_detail": "Control de calidad positivo",
	"municipality": "Pobla de Benifassà (La)",
	"zone": "baix-maestrat",
	"aemet_municipio": null,
	"start": {
		"lat": 40.70533996447921,
		"lon": 0.170624032616615,
		"name": "Fredes. La Pobla de Benifassà"
	},
	"end": {
		"lat": 40.60329297557473,
		"lon": 0.045911958441138
	},
	"distance_km": 20.4,
	"ascent_m": 570,
	"descent_m": 985,
	"circular": false,
	"difficulty_mide": {
		"medio": 1,
		"itinerario": 2,
		"desplazamiento": 2,
		"esfuerzo": 4
	},
	"est_duration_min": 400,
	"water_points": [
		"Fuente (km 0.0, a 54 m del track; OSM, no verificado en campo)",
		"Fuente (km 0.1, a 38 m del track; OSM, no verificado en campo)",
		"Manantial (km 6.2, a 5 m del track; OSM, no verificado en campo)",
		"Fuente (km 6.4, a 33 m del track; OSM, no verificado en campo)",
		"Fuente (km 6.6, a 5 m del track; OSM, no verificado en campo)",
		"Manantial \"Font de la Gatellera\" (km 17.9, a 10 m del track; OSM, no verificado en campo)",
		"Fuente (km 20.4, a 56 m del track; OSM, no verificado en campo)",
		"Fuente (km 20.4, a 27 m del track; OSM, no verificado en campo)",
		"Fuente (km 20.4, a 100 m del track; OSM, no verificado en campo)"
	],
	"water_points_geo": [
		{
			"name": null,
			"kind": "fuente",
			"lat": 40.7056285,
			"lon": 0.1701152,
			"km": 0,
			"dist_m": 54
		},
		{
			"name": null,
			"kind": "fuente",
			"lat": 40.7053467,
			"lon": 0.1712214,
			"km": 0.1,
			"dist_m": 38
		},
		{
			"name": null,
			"kind": "manantial",
			"lat": 40.6791711,
			"lon": 0.1206582,
			"km": 6.2,
			"dist_m": 5
		},
		{
			"name": null,
			"kind": "fuente",
			"lat": 40.6796906,
			"lon": 0.1202439,
			"km": 6.4,
			"dist_m": 33
		},
		{
			"name": null,
			"kind": "fuente",
			"lat": 40.6798589,
			"lon": 0.1187227,
			"km": 6.6,
			"dist_m": 5
		},
		{
			"name": "Font de la Gatellera",
			"kind": "manantial",
			"lat": 40.618561,
			"lon": 0.0497887,
			"km": 17.9,
			"dist_m": 10
		},
		{
			"name": null,
			"kind": "fuente",
			"lat": 40.6032969,
			"lon": 0.0462376,
			"km": 20.4,
			"dist_m": 27
		},
		{
			"name": null,
			"kind": "fuente",
			"lat": 40.6029115,
			"lon": 0.0469821,
			"km": 20.4,
			"dist_m": 100
		},
		{
			"name": null,
			"kind": "fuente",
			"lat": 40.6028505,
			"lon": 0.0455741,
			"km": 20.4,
			"dist_m": 56
		}
	],
	"pois": [
		{
			"name": "Mirador de la Placeta",
			"type": "mirador",
			"lat": 40.6028629,
			"lon": 0.04626,
			"km": 20.4,
			"dist_m": 56
		},
		{
			"name": "el Portal",
			"type": "patrimonio",
			"lat": 40.60302,
			"lon": 0.0460313,
			"km": 20.4,
			"dist_m": 32
		}
	],
	"escape_routes": [],
	"highlights": [],
	"best_season": [],
	"best_start_time": null,
	"shade_ratio": 0,
	"gpx": "gr-7-e25.gpx",
	"links": {
		"femecv": "https://senders.femecv.com/es/sendero/ver/gr-7-e25",
		"wikiloc": null
	},
	"alternatives": [
		"gr-7-e24",
		"gr-7",
		"gr-331-e11"
	],
	"notes_rain": null,
	"bbox": [
		0.045666033402085,
		40.60329297557473,
		0.171403968706727,
		40.70533996447921
	],
	"sources": [
		"Ficha FEMECV https://senders.femecv.com/es/sendero/ver/gr-7-e25 (crawl 2026-06-11): nombre, estado \"Control de calidad positivo\", distancia, desniveles, horario teórico, MIDE, modalidad, municipio, comarca",
		"OSM Overpass (enrich 2026-06-20): fuentes de agua, sombra estimada y alternativas por proximidad — no verificado en campo",
		"GPX gr-7-e25.gpx (derivados: inicio, bbox)"
	]
}
