{
	"id": "gr-7-e40",
	"name": "GR 7 E40 SIETE AGUAS - CAMPAMENTO TABARLA",
	"type": "GR",
	"status": "homologado",
	"status_detail": "Control de calidad positivo",
	"municipality": "Siete Aguas",
	"zone": "hoya-de-bunol",
	"aemet_municipio": null,
	"start": {
		"lat": 39.47303499095142,
		"lon": -0.914938962087035,
		"name": "Ctra. Venta Quemada. Siete Aguas"
	},
	"distance_km": 24.6,
	"ascent_m": 570,
	"descent_m": 805,
	"circular": false,
	"difficulty_mide": {
		"medio": 2,
		"itinerario": 2,
		"desplazamiento": 2,
		"esfuerzo": 4
	},
	"est_duration_min": 450,
	"water_points": [
		"Fuente (km 0.1, a 87 m del track; OSM, no verificado en campo)",
		"Manantial \"Font Roser\" (km 12.6, a 4 m del track; OSM, no verificado en campo)",
		"Manantial \"Pozico Valentín\" (km 22.3, a 15 m del track; OSM, no verificado en campo)"
	],
	"water_points_geo": [
		{
			"name": null,
			"kind": "fuente",
			"lat": 39.4720466,
			"lon": -0.915606,
			"km": 0.1,
			"dist_m": 87
		},
		{
			"name": "Font Roser",
			"kind": "manantial",
			"lat": 39.4209228,
			"lon": -0.9579662,
			"km": 12.6,
			"dist_m": 4
		},
		{
			"name": "Pozico Valentín",
			"kind": "manantial",
			"lat": 39.3760334,
			"lon": -0.9634817,
			"km": 22.3,
			"dist_m": 15
		}
	],
	"pois": [
		{
			"name": "Cruz Pairal",
			"type": "patrimonio",
			"lat": 39.4728467,
			"lon": -0.9145597,
			"km": 0,
			"dist_m": 4
		},
		{
			"name": "Fuente de los Siete Caños",
			"type": "patrimonio",
			"lat": 39.4720249,
			"lon": -0.915533,
			"km": 0.1,
			"dist_m": 80
		},
		{
			"name": "Puente Real",
			"type": "patrimonio",
			"lat": 39.4701433,
			"lon": -0.9123938,
			"km": 0.4,
			"dist_m": 3
		}
	],
	"escape_routes": [],
	"highlights": [],
	"best_season": [],
	"best_start_time": null,
	"shade_ratio": 0.02,
	"gpx": "gr-7-e40.gpx",
	"links": {
		"femecv": "https://senders.femecv.com/es/sendero/ver/gr-7-e40",
		"wikiloc": null
	},
	"alternatives": [
		"pr-cv-462",
		"gr-238-e10",
		"pr-cv-300"
	],
	"notes_rain": null,
	"bbox": [
		-0.966370990499854,
		39.360893005505204,
		-0.905315028503537,
		39.47303499095142
	],
	"sources": [
		"Ficha FEMECV https://senders.femecv.com/es/sendero/ver/gr-7-e40 (crawl 2026-06-11): nombre, estado \"Control de calidad positivo\", distancia, desniveles, horario teórico, MIDE, modalidad, municipio, comarca",
		"OSM Overpass (enrich 2026-06-20): fuentes de agua, sombra estimada y alternativas por proximidad — no verificado en campo",
		"GPX gr-7-e40.gpx (derivados: inicio, bbox)"
	]
}
