{
	"id": "gr-7-e31",
	"name": "GR 7 E31 VILLAHERMOSA DEL RÍO - SAN VICENTE DE PIEDRAHITA",
	"type": "GR",
	"status": "homologado",
	"status_detail": "Control de calidad positivo",
	"municipality": "Villahermosa del Río",
	"zone": "alto-mijares",
	"aemet_municipio": null,
	"start": {
		"lat": 40.20134400576353,
		"lon": -0.419431021437049,
		"name": "C. Hospital. Villahermosa del Río"
	},
	"distance_km": 12.1,
	"ascent_m": 480,
	"descent_m": 325,
	"circular": false,
	"difficulty_mide": {
		"medio": 1,
		"itinerario": 2,
		"desplazamiento": 2,
		"esfuerzo": 3
	},
	"est_duration_min": 235,
	"water_points": [
		"Manantial \"Fuente el Picayo\" (km 5.7, a 12 m del track; OSM, no verificado en campo)",
		"Manantial (km 6.0, a 12 m del track; OSM, no verificado en campo)",
		"Fuente (km 6.1, a 8 m del track; OSM, no verificado en campo)"
	],
	"water_points_geo": [
		{
			"name": "Fuente el Picayo",
			"kind": "manantial",
			"lat": 40.1778284,
			"lon": -0.4594847,
			"km": 5.7,
			"dist_m": 12
		},
		{
			"name": null,
			"kind": "manantial",
			"lat": 40.1755653,
			"lon": -0.4592113,
			"km": 6,
			"dist_m": 12
		},
		{
			"name": null,
			"kind": "fuente",
			"lat": 40.1751405,
			"lon": -0.4603328,
			"km": 6.1,
			"dist_m": 8
		}
	],
	"pois": [
		{
			"name": "Cruz de los Caídos",
			"type": "patrimonio",
			"lat": 40.2021621,
			"lon": -0.4180343,
			"km": 0,
			"dist_m": 149
		}
	],
	"escape_routes": [],
	"highlights": [],
	"best_season": [],
	"best_start_time": null,
	"shade_ratio": 0,
	"gpx": "gr-7-e31.gpx",
	"links": {
		"femecv": "https://senders.femecv.com/es/sendero/ver/gr-7-e31",
		"wikiloc": null
	},
	"alternatives": [
		"gr-7-e32",
		"pr-cv-328",
		"pr-cv-111-1"
	],
	"notes_rain": null,
	"bbox": [
		-0.498866988345981,
		40.141842970624566,
		-0.419431021437049,
		40.201350040733814
	],
	"sources": [
		"Ficha FEMECV https://senders.femecv.com/es/sendero/ver/gr-7-e31 (crawl 2026-06-11): nombre, estado \"Control de calidad positivo\", distancia, desniveles, horario teórico, MIDE, modalidad, municipio, comarca",
		"OSM Overpass (enrich 2026-06-20): fuentes de agua, sombra estimada y alternativas por proximidad — no verificado en campo",
		"GPX gr-7-e31.gpx (derivados: inicio, bbox)"
	]
}
