{
	"id": "na-pr-na-194",
	"name": "PR-NA 194",
	"type": "PR",
	"status": "homologado",
	"status_detail": null,
	"municipality": null,
	"zone": null,
	"aemet_municipio": null,
	"start": {
		"lat": 42.66570911742745,
		"lon": -1.5392439812422285,
		"name": null
	},
	"end": {
		"lat": 42.63778254389766,
		"lon": -1.547593697905573
	},
	"distance_km": 9.5,
	"ascent_m": null,
	"descent_m": null,
	"circular": null,
	"difficulty_mide": null,
	"est_duration_min": null,
	"water_points": [
		"Manantial \"Fuente de la Teja\" (km 8.7, a 21 m del track; OSM, no verificado en campo)"
	],
	"water_points_geo": [
		{
			"name": "Fuente de la Teja",
			"kind": "manantial",
			"lat": 42.6618581,
			"lon": -1.5432074,
			"km": 8.7,
			"dist_m": 21
		}
	],
	"pois": [
		{
			"name": "Alto de las Saleras",
			"type": "cumbre",
			"lat": 42.6544626,
			"lon": -1.539461,
			"km": 5.4,
			"dist_m": 32
		},
		{
			"name": "panel tematico",
			"type": "mirador",
			"lat": 42.6642805,
			"lon": -1.5488469,
			"km": 9.4,
			"dist_m": 5
		},
		{
			"name": "Monte de Arriba",
			"type": "cumbre",
			"lat": 42.663752,
			"lon": -1.549458,
			"km": 9.5,
			"dist_m": 4
		}
	],
	"escape_routes": [],
	"highlights": [],
	"best_season": [],
	"best_start_time": null,
	"shade_ratio": 0.14,
	"gpx": "na-pr-na-194.gpx",
	"links": {
		"femecv": null,
		"wikiloc": null
	},
	"alternatives": [],
	"notes_rain": null,
	"bbox": [
		-1.5523491706699153,
		42.63778254389766,
		-1.5351817756890904,
		42.67091377638277
	],
	"sources": [
		"Existencia, estado, nombre y etapas: MiSendaFEDME (FNDME, ccaa=nc) (consulta 2026-06-30)",
		"Geometría oficial: IDENA WFS capa DOTACI_Lin_PRNA194 (Gobierno de Navarra, CC-BY 4.0; reproyectada EPSG:25830→WGS84)",
		"Estado: presencia en la fuente oficial de la federación ≈ en vigor",
		"OSM Overpass (enrich 2026-06-30): fuentes de agua, POIs y sombra estimada — no verificado en campo"
	],
	"federacion": "FNDME",
	"comunidad": "Comunidad Foral de Navarra",
	"capabilities": {
		"estado": true,
		"mide": false,
		"agua": false,
		"etapas": true,
		"descripcion": false,
		"fauna": false,
		"escapes": false
	}
}
