{
	"id": "pr-cv-21",
	"name": "PR-CV 21 PUERTO DE TUDONS - BENIFATO",
	"type": "PR",
	"status": "con_reservas",
	"status_detail": "Sin controles de calidad",
	"municipality": "Alcoleja",
	"zone": "comtat",
	"aemet_municipio": null,
	"start": {
		"lat": 38.65757999941707,
		"lon": -0.241720005869865,
		"name": "A 250m del Puerto de Tudons dirección Alcoleja"
	},
	"end": {
		"lat": 38.65016000345349,
		"lon": -0.324909975752234
	},
	"distance_km": 15,
	"ascent_m": 570,
	"descent_m": 950,
	"circular": false,
	"difficulty_mide": {
		"medio": 2,
		"itinerario": 2,
		"desplazamiento": 1,
		"esfuerzo": 3
	},
	"est_duration_min": 280,
	"water_points": [
		"Manantial \"Font de Partegat\" (km 0.0, a 28 m del track; OSM, no verificado en campo)",
		"Manantial \"Font Vella\" (km 0.7, a 16 m del track; OSM, no verificado en campo)",
		"Manantial \"Fonteta de Giner\" (km 1.3, a 9 m del track; OSM, no verificado en campo)",
		"Manantial \"Font de l'Anouer\" (km 1.8, a 1 m del track; OSM, no verificado en campo)",
		"Manantial \"Font de Forata\" (km 2.6, a 31 m del track; OSM, no verificado en campo)",
		"Manantial (km 6.1, a 6 m del track; OSM, no verificado en campo)",
		"Manantial \"Font de l'Arbre\" (km 6.1, a 26 m del track; OSM, no verificado en campo)",
		"Manantial \"Font de l'Espinal\" (km 8.0, a 6 m del track; OSM, no verificado en campo)",
		"Manantial (km 8.0, a 9 m del track; OSM, no verificado en campo)"
	],
	"water_points_geo": [
		{
			"name": "Font de Partegat",
			"kind": "manantial",
			"lat": 38.6573244,
			"lon": -0.241888,
			"km": 0,
			"dist_m": 28
		},
		{
			"name": "Font Vella",
			"kind": "manantial",
			"lat": 38.6541601,
			"lon": -0.2437289,
			"km": 0.7,
			"dist_m": 16
		},
		{
			"name": "Fonteta de Giner",
			"kind": "manantial",
			"lat": 38.6555729,
			"lon": -0.2498905,
			"km": 1.3,
			"dist_m": 9
		},
		{
			"name": "Font de l'Anouer",
			"kind": "manantial",
			"lat": 38.6546786,
			"lon": -0.2545867,
			"km": 1.8,
			"dist_m": 1
		},
		{
			"name": "Font de Forata",
			"kind": "manantial",
			"lat": 38.6532137,
			"lon": -0.2628302,
			"km": 2.6,
			"dist_m": 31
		},
		{
			"name": null,
			"kind": "manantial",
			"lat": 38.6621795,
			"lon": -0.2903534,
			"km": 6.1,
			"dist_m": 6
		},
		{
			"name": "Font de l'Arbre",
			"kind": "manantial",
			"lat": 38.6623478,
			"lon": -0.2904302,
			"km": 6.1,
			"dist_m": 26
		},
		{
			"name": "Font de l'Espinal",
			"kind": "manantial",
			"lat": 38.6592332,
			"lon": -0.3084262,
			"km": 8,
			"dist_m": 6
		},
		{
			"name": null,
			"kind": "manantial",
			"lat": 38.6593185,
			"lon": -0.3084782,
			"km": 8,
			"dist_m": 9
		}
	],
	"pois": [],
	"escape_routes": [],
	"highlights": [],
	"best_season": [],
	"best_start_time": null,
	"shade_ratio": 0.19,
	"gpx": "pr-cv-21.gpx",
	"links": {
		"femecv": "https://senders.femecv.com/es/sendero/ver/pr-cv-21",
		"wikiloc": null
	},
	"alternatives": [
		"pr-cv-464",
		"pr-cv-198",
		"pr-cv-9"
	],
	"notes_rain": null,
	"bbox": [
		-0.324909975752234,
		38.65016000345349,
		-0.241120029240847,
		38.662349972873926
	],
	"sources": [
		"Ficha FEMECV https://senders.femecv.com/es/sendero/ver/pr-cv-21 (crawl 2026-06-11): nombre, estado \"Sin controles de calidad\", distancia, desniveles, horario teórico, MIDE, modalidad, municipio, comarca",
		"OSM Overpass (enrich 2026-06-20): fuentes de agua, sombra estimada y alternativas por proximidad — no verificado en campo",
		"GPX pr-cv-21.gpx (derivados: inicio, bbox)"
	]
}
