{
	"id": "pr-cv-178",
	"name": "PR-CV 178 SENDA A LA CUEVA SANTA",
	"type": "PR",
	"status": "con_reservas",
	"status_detail": "Sin controles de calidad",
	"municipality": "Altura",
	"zone": "alto-palancia",
	"aemet_municipio": null,
	"start": {
		"lat": 39.85285095870495,
		"lon": -0.519392006099224,
		"name": "C/ Camino Fuente Sierra, 12. Altura"
	},
	"end": {
		"lat": 39.84319802373648,
		"lon": -0.61329698190093
	},
	"distance_km": 9.5,
	"ascent_m": 535,
	"descent_m": 145,
	"circular": false,
	"difficulty_mide": {
		"medio": 1,
		"itinerario": 2,
		"desplazamiento": 2,
		"esfuerzo": 2
	},
	"est_duration_min": 170,
	"water_points": [
		"Fuente (km 0.0, a 63 m del track; OSM, no verificado en campo)"
	],
	"water_points_geo": [
		{
			"name": null,
			"kind": "fuente",
			"lat": 39.8524289,
			"lon": -0.5189084,
			"km": 0,
			"dist_m": 63
		}
	],
	"pois": [
		{
			"name": "Pilón del Collado",
			"type": "patrimonio",
			"lat": 39.85051,
			"lon": -0.5379208,
			"km": 1.8,
			"dist_m": 12
		},
		{
			"name": "Alto de las Cuevas",
			"type": "cumbre",
			"lat": 39.8513708,
			"lon": -0.5526478,
			"km": 3.1,
			"dist_m": 81
		}
	],
	"escape_routes": [],
	"highlights": [],
	"best_season": [],
	"best_start_time": null,
	"shade_ratio": 0,
	"gpx": "pr-cv-178.gpx",
	"links": {
		"femecv": "https://senders.femecv.com/es/sendero/ver/pr-cv-178",
		"wikiloc": null
	},
	"alternatives": [
		"gr-160-e05",
		"gr-231-e01",
		"gr-231"
	],
	"notes_rain": null,
	"bbox": [
		-0.61329698190093,
		39.84319802373648,
		-0.519392006099224,
		39.85621101222932
	],
	"sources": [
		"Ficha FEMECV https://senders.femecv.com/es/sendero/ver/pr-cv-178 (crawl 2026-06-11): nombre, estado \"Sin controles de calidad\", distancia, desniveles, horario teórico, MIDE, modalidad, municipio, comarca",
		"OSM Overpass (enrich 2026-06-20): fuentes de agua, sombra estimada y alternativas por proximidad — no verificado en campo",
		"GPX pr-cv-178.gpx (derivados: inicio, bbox)"
	]
}
