{
	"id": "pr-cv-164",
	"name": "PR-CV 164 LA VALL D'UIXÓ - FONT DEL NOGUERET - FONT DE CABRES",
	"type": "PR",
	"status": "con_reservas",
	"status_detail": "Sin controles de calidad",
	"municipality": "Vall d'Uixó (La)",
	"zone": "plana-baixa",
	"aemet_municipio": null,
	"start": {
		"lat": 39.82867897488177,
		"lon": -0.228417003527284,
		"name": "Ctra. de Segorbe, 119. Vall d'Uixó"
	},
	"end": {
		"lat": 39.828671012073755,
		"lon": -0.228384984657168
	},
	"distance_km": 13.6,
	"ascent_m": 680,
	"descent_m": 680,
	"circular": true,
	"difficulty_mide": {
		"medio": 2,
		"itinerario": 2,
		"desplazamiento": 2,
		"esfuerzo": 3
	},
	"est_duration_min": 290,
	"water_points": [
		"Fuente \"Font del Nogueret\" (km 1.8, a 11 m del track; OSM, no verificado en campo)",
		"Manantial \"Font l'Anoueret\" (km 3.6, a 9 m del track; OSM, no verificado en campo)"
	],
	"water_points_geo": [
		{
			"name": "Font del Nogueret",
			"kind": "fuente",
			"lat": 39.8391014,
			"lon": -0.2337175,
			"km": 1.8,
			"dist_m": 11
		},
		{
			"name": "Font l'Anoueret",
			"kind": "manantial",
			"lat": 39.8475106,
			"lon": -0.2372779,
			"km": 3.6,
			"dist_m": 9
		}
	],
	"pois": [
		{
			"name": "Pic de la Font de Cabres",
			"type": "cumbre",
			"lat": 39.8624982,
			"lon": -0.2244403,
			"km": 7.9,
			"dist_m": 5
		}
	],
	"escape_routes": [],
	"highlights": [],
	"best_season": [],
	"best_start_time": null,
	"shade_ratio": 0,
	"gpx": "pr-cv-164.gpx",
	"links": {
		"femecv": "https://senders.femecv.com/es/sendero/ver/pr-cv-164",
		"wikiloc": null
	},
	"alternatives": [
		"pr-cv-241",
		"gr-36",
		"sl-cv-157"
	],
	"notes_rain": null,
	"bbox": [
		-0.242424001917243,
		39.82848099432886,
		-0.214848965406418,
		39.86267496831715
	],
	"sources": [
		"Ficha FEMECV https://senders.femecv.com/es/sendero/ver/pr-cv-164 (crawl 2026-06-11): nombre, estado \"Sin controles de calidad\", distancia, desniveles, horario teórico, MIDE, modalidad, municipio, comarca",
		"OSM Overpass (enrich 2026-06-20): fuentes de agua, sombra estimada y alternativas por proximidad — no verificado en campo",
		"GPX pr-cv-164.gpx (derivados: inicio, bbox)"
	]
}
