{
	"id": "pr-cv-294",
	"name": "PR-CV 294 CAMI VELL DE BENASSAL A VISTABELLA (PEL MOLI DEL PAS)",
	"type": "PR",
	"status": "con_reservas",
	"status_detail": "Control de calidad condicionado",
	"municipality": "Benassal",
	"zone": "alt-maestrat",
	"aemet_municipio": null,
	"start": {
		"lat": 40.380602991208434,
		"lon": -0.146476021036506,
		"name": "Ermita Nuestra Señora de Loreto. Benassal"
	},
	"end": {
		"lat": 40.36476396024227,
		"lon": -0.216047996655107
	},
	"distance_km": 9.2,
	"ascent_m": 270,
	"descent_m": 470,
	"circular": false,
	"difficulty_mide": {
		"medio": 2,
		"itinerario": 2,
		"desplazamiento": 2,
		"esfuerzo": 3
	},
	"est_duration_min": 180,
	"water_points": [
		"Manantial \"Font de la Comuna\" (km 8.7, a 4 m del track; OSM, no verificado en campo)"
	],
	"water_points_geo": [
		{
			"name": "Font de la Comuna",
			"kind": "manantial",
			"lat": 40.3659671,
			"lon": -0.2117402,
			"km": 8.7,
			"dist_m": 4
		}
	],
	"pois": [
		{
			"name": "Creu de Loreto",
			"type": "patrimonio",
			"lat": 40.380579,
			"lon": -0.1467275,
			"km": 0,
			"dist_m": 2
		},
		{
			"name": "Ermita de la Mare de Déu de Loreto",
			"type": "patrimonio",
			"lat": 40.3805012,
			"lon": -0.1468982,
			"km": 0,
			"dist_m": 17
		}
	],
	"escape_routes": [],
	"highlights": [],
	"best_season": [],
	"best_start_time": null,
	"shade_ratio": 0,
	"gpx": "pr-cv-294.gpx",
	"links": {
		"femecv": "https://senders.femecv.com/es/sendero/ver/pr-cv-294",
		"wikiloc": null
	},
	"alternatives": [
		"sl-cv-102",
		"pr-cv-395",
		"pr-cv-297"
	],
	"notes_rain": null,
	"bbox": [
		-0.216047996655107,
		40.36361496895552,
		-0.146476021036506,
		40.38257298991084
	],
	"sources": [
		"Ficha FEMECV https://senders.femecv.com/es/sendero/ver/pr-cv-294 (crawl 2026-06-11): nombre, estado \"Control de calidad condicionado\", distancia, desniveles, horario teórico, MIDE, modalidad, municipio, comarca",
		"OSM Overpass (enrich 2026-06-20): fuentes de agua, sombra estimada y alternativas por proximidad — no verificado en campo",
		"GPX pr-cv-294.gpx (derivados: inicio, bbox)"
	],
	"federacion": "FEMECV",
	"comunidad": "Comunitat Valenciana",
	"capabilities": {
		"estado": true,
		"mide": true,
		"agua": true,
		"etapas": true,
		"descripcion": true,
		"fauna": true,
		"escapes": true
	}
}
