{
	"id": "pr-cv-232",
	"name": "PR-CV 232 EL RENTONAR - MONTAÑA DE NIEVE",
	"type": "PR",
	"status": "con_reservas",
	"status_detail": "Control de calidad condicionado",
	"municipality": "Torremanzanas/Torre de les Maçanes (La)",
	"zone": "alacanti",
	"aemet_municipio": null,
	"start": {
		"lat": 38.609299985691905,
		"lon": -0.420450009405613,
		"name": "Avenida de Alacant (junto parque municipal). Torremanzanas"
	},
	"distance_km": 13.7,
	"ascent_m": 680,
	"descent_m": 680,
	"circular": true,
	"difficulty_mide": {
		"medio": 3,
		"itinerario": 3,
		"desplazamiento": 2,
		"esfuerzo": 3
	},
	"est_duration_min": 290,
	"water_points": [
		"Manantial \"El Llavaor\" (km 0.0, a 38 m del track; OSM, no verificado en campo)",
		"Fuente \"La Font\" (km 0.1, a 98 m del track; OSM, no verificado en campo)"
	],
	"water_points_geo": [
		{
			"name": "El Llavaor",
			"kind": "manantial",
			"lat": 38.6087868,
			"lon": -0.4203482,
			"km": 0,
			"dist_m": 38
		},
		{
			"name": "La Font",
			"kind": "fuente",
			"lat": 38.6080143,
			"lon": -0.4202525,
			"km": 0.1,
			"dist_m": 98
		}
	],
	"pois": [
		{
			"name": "El Racó de Xomarra",
			"type": "cumbre",
			"lat": 38.6199846,
			"lon": -0.4505843,
			"km": 5.4,
			"dist_m": 14
		},
		{
			"name": "els Plans",
			"type": "cumbre",
			"lat": 38.6359381,
			"lon": -0.4284903,
			"km": 8.4,
			"dist_m": 2
		}
	],
	"escape_routes": [],
	"highlights": [],
	"best_season": [],
	"best_start_time": null,
	"shade_ratio": 0.02,
	"gpx": "pr-cv-232.gpx",
	"links": {
		"femecv": "https://senders.femecv.com/es/sendero/ver/pr-cv-232",
		"wikiloc": null
	},
	"alternatives": [
		"pr-cv-20",
		"pr-cv-2",
		"sl-cv-151"
	],
	"notes_rain": null,
	"bbox": [
		-0.459549995139241,
		38.60696696676314,
		-0.413582967594266,
		38.63593298010528
	],
	"sources": [
		"Ficha FEMECV https://senders.femecv.com/es/sendero/ver/pr-cv-232 (crawl 2026-06-11): nombre, estado \"Control de calidad condicionado\", distancia, desniveles, horario teórico, MIDE, modalidad, municipio, comarca",
		"OSM Overpass (enrich 2026-06-20): fuentes de agua, sombra estimada y alternativas por proximidad — no verificado en campo",
		"GPX pr-cv-232.gpx (derivados: inicio, bbox)"
	]
}
