{
	"id": "pr-cv-27",
	"name": "PR-CV 27 SENDA D'AGRES A COCENTAINA",
	"type": "PR",
	"status": "con_reservas",
	"status_detail": "Sin controles de calidad",
	"municipality": "Agres",
	"zone": "comtat",
	"aemet_municipio": null,
	"start": {
		"lat": 38.775983015075326,
		"lon": -0.515618976205587,
		"name": "Convento de Agres"
	},
	"distance_km": 8.9,
	"ascent_m": 495,
	"descent_m": 725,
	"circular": false,
	"difficulty_mide": {
		"medio": 3,
		"itinerario": 2,
		"desplazamiento": 2,
		"esfuerzo": 3
	},
	"est_duration_min": 215,
	"water_points": [
		"Fuente \"Font del Convent\" (km 0.0, a 14 m del track; OSM, no verificado en campo)",
		"Fuente \"Cova del Convent\" (km 0.0, a 35 m del track; OSM, no verificado en campo)",
		"Manantial \"Font de Gralla\" (km 4.5, a 30 m del track; OSM, no verificado en campo)",
		"Manantial \"Font de Llopis\" (km 4.8, a 2 m del track; OSM, no verificado en campo)",
		"Manantial \"Font de Sancho\" (km 5.3, a 5 m del track; OSM, no verificado en campo)",
		"Manantial \"Font l'Esquerola\" (km 5.9, a 9 m del track; OSM, no verificado en campo)",
		"Manantial \"Font Huit Piletes\" (km 6.7, a 54 m del track; OSM, no verificado en campo)",
		"Manantial \"Font de la Penya Banyada\" (km 7.6, a 6 m del track; OSM, no verificado en campo)",
		"Manantial \"Font de Borras\" (km 7.7, a 6 m del track; OSM, no verificado en campo)"
	],
	"water_points_geo": [
		{
			"name": "Font del Convent",
			"kind": "fuente",
			"lat": 38.7758551,
			"lon": -0.5156447,
			"km": 0,
			"dist_m": 14
		},
		{
			"name": "Cova del Convent",
			"kind": "fuente",
			"lat": 38.7757756,
			"lon": -0.5159249,
			"km": 0,
			"dist_m": 35
		},
		{
			"name": "Font de Gralla",
			"kind": "manantial",
			"lat": 38.760225,
			"lon": -0.4841998,
			"km": 4.5,
			"dist_m": 30
		},
		{
			"name": "Font de Llopis",
			"kind": "manantial",
			"lat": 38.7589371,
			"lon": -0.4823313,
			"km": 4.8,
			"dist_m": 2
		},
		{
			"name": "Font de Sancho",
			"kind": "manantial",
			"lat": 38.7554973,
			"lon": -0.4800455,
			"km": 5.3,
			"dist_m": 5
		},
		{
			"name": "Font l'Esquerola",
			"kind": "manantial",
			"lat": 38.7539757,
			"lon": -0.4757746,
			"km": 5.9,
			"dist_m": 9
		},
		{
			"name": "Font Huit Piletes",
			"kind": "manantial",
			"lat": 38.7522411,
			"lon": -0.4677538,
			"km": 6.7,
			"dist_m": 54
		},
		{
			"name": "Font de la Penya Banyada",
			"kind": "manantial",
			"lat": 38.7502313,
			"lon": -0.4600265,
			"km": 7.6,
			"dist_m": 6
		},
		{
			"name": "Font de Borras",
			"kind": "manantial",
			"lat": 38.7502848,
			"lon": -0.4594827,
			"km": 7.7,
			"dist_m": 6
		}
	],
	"pois": [
		{
			"name": "Alt del Cerincal",
			"type": "cumbre",
			"lat": 38.7666898,
			"lon": -0.4949656,
			"km": 3.2,
			"dist_m": 124
		},
		{
			"name": "Balconada de Llopis",
			"type": "cumbre",
			"lat": 38.760168,
			"lon": -0.4817573,
			"km": 4.7,
			"dist_m": 78
		}
	],
	"escape_routes": [],
	"highlights": [],
	"best_season": [],
	"best_start_time": null,
	"shade_ratio": 0.64,
	"gpx": "pr-cv-27.gpx",
	"links": {
		"femecv": "https://senders.femecv.com/es/sendero/ver/pr-cv-27",
		"wikiloc": null
	},
	"alternatives": [
		"sl-cv-168",
		"pr-cv-104",
		"pr-cv-389"
	],
	"notes_rain": null,
	"bbox": [
		-0.515618976205587,
		38.748931009322405,
		-0.449241008609533,
		38.776344023644924
	],
	"sources": [
		"Ficha FEMECV https://senders.femecv.com/es/sendero/ver/pr-cv-27 (crawl 2026-06-11): nombre, estado \"Sin controles de calidad\", distancia, desniveles, horario teórico, MIDE, modalidad, municipio, comarca",
		"OSM Overpass (enrich 2026-06-20): fuentes de agua, sombra estimada y alternativas por proximidad — no verificado en campo",
		"GPX pr-cv-27.gpx (derivados: inicio, bbox)"
	]
}
