{
	"id": "pr-cv-113",
	"name": "PR-CV 113 AZAGADOR DE CHELLA A ANNA",
	"type": "PR",
	"status": "con_reservas",
	"status_detail": "Sin controles de calidad",
	"municipality": "Chella",
	"zone": "canal-de-navarres",
	"aemet_municipio": null,
	"start": {
		"lat": 39.02717096731067,
		"lon": -0.64938903786242,
		"name": "Manantial del Abrullador"
	},
	"end": {
		"lat": 39.03708198107779,
		"lon": -0.689380019903183
	},
	"distance_km": 7.07,
	"ascent_m": 80,
	"descent_m": 1000,
	"circular": false,
	"difficulty_mide": null,
	"est_duration_min": 125,
	"water_points": [
		"Manantial \"Fuente Negra\" (km 0.0, a 15 m del track; OSM, no verificado en campo)",
		"Fuente (km 2.3, a 15 m del track; OSM, no verificado en campo)",
		"Fuente (km 2.7, a 8 m del track; OSM, no verificado en campo)",
		"Fuente (km 3.0, a 58 m del track; OSM, no verificado en campo)",
		"Fuente \"Fuente Los Chopos\" (km 3.3, a 11 m del track; OSM, no verificado en campo)",
		"Fuente (km 4.5, a 5 m del track; OSM, no verificado en campo)",
		"Manantial \"Fuente del Abrullador\" (km 6.5, a 13 m del track; OSM, no verificado en campo)"
	],
	"water_points_geo": [
		{
			"name": "Fuente Negra",
			"kind": "manantial",
			"lat": 39.0272017,
			"lon": -0.6495571,
			"km": 0,
			"dist_m": 15
		},
		{
			"name": null,
			"kind": "fuente",
			"lat": 39.0419115,
			"lon": -0.6573492,
			"km": 2.3,
			"dist_m": 15
		},
		{
			"name": null,
			"kind": "fuente",
			"lat": 39.0452376,
			"lon": -0.6600766,
			"km": 2.7,
			"dist_m": 8
		},
		{
			"name": null,
			"kind": "fuente",
			"lat": 39.0471133,
			"lon": -0.6620187,
			"km": 3,
			"dist_m": 58
		},
		{
			"name": "Fuente Los Chopos",
			"kind": "fuente",
			"lat": 39.0458104,
			"lon": -0.6633552,
			"km": 3.3,
			"dist_m": 11
		},
		{
			"name": null,
			"kind": "fuente",
			"lat": 39.0426742,
			"lon": -0.6710159,
			"km": 4.5,
			"dist_m": 5
		},
		{
			"name": "Fuente del Abrullador",
			"kind": "manantial",
			"lat": 39.0371814,
			"lon": -0.6894503,
			"km": 6.5,
			"dist_m": 13
		}
	],
	"pois": [
		{
			"name": "Las Simicas",
			"type": "mirador",
			"lat": 39.0346841,
			"lon": -0.650555,
			"km": 1.1,
			"dist_m": 17
		},
		{
			"name": "Mirador del Salto de Chella",
			"type": "mirador",
			"lat": 39.0454193,
			"lon": -0.6600673,
			"km": 2.7,
			"dist_m": 6
		}
	],
	"escape_routes": [],
	"highlights": [],
	"best_season": [],
	"best_start_time": null,
	"shade_ratio": 0.25,
	"gpx": "pr-cv-113.gpx",
	"links": {
		"femecv": "https://senders.femecv.com/es/sendero/ver/pr-cv-113",
		"wikiloc": null
	},
	"alternatives": [
		"gr-332-e01",
		"gr-332",
		"sl-cv-6"
	],
	"notes_rain": null,
	"bbox": [
		-0.689380019903183,
		39.02717096731067,
		-0.64722097478807,
		39.046890987083316
	],
	"sources": [
		"Ficha FEMECV https://senders.femecv.com/es/sendero/ver/pr-cv-113 (crawl 2026-06-11): nombre, estado \"Sin controles de calidad\", distancia, desniveles, horario teórico, modalidad, municipio, comarca",
		"OSM Overpass (enrich 2026-06-20): fuentes de agua, sombra estimada y alternativas por proximidad — no verificado en campo",
		"GPX pr-cv-113.gpx (derivados: inicio, bbox)"
	],
	"federacion": "FEMECV",
	"comunidad": "Comunitat Valenciana",
	"capabilities": {
		"estado": true,
		"mide": true,
		"agua": true,
		"etapas": true,
		"descripcion": true,
		"fauna": true,
		"escapes": true
	}
}
