{
	"id": "pr-cv-1",
	"name": "PR-CV 1 CULLA - VILAFRANCA DEL CID - LA POBLA DEL BELLESTAR - LA IGLESUELA DEL CID",
	"type": "PR",
	"status": "con_reservas",
	"status_detail": "Sin controles de calidad",
	"municipality": "Culla",
	"zone": "alt-maestrat",
	"aemet_municipio": null,
	"start": {
		"lat": 40.336861023679376,
		"lon": -0.164380017668009,
		"name": "Culla"
	},
	"end": {
		"lat": 40.48148003406823,
		"lon": -0.320339994505048
	},
	"distance_km": 31.8,
	"ascent_m": 1270,
	"descent_m": 1090,
	"circular": false,
	"difficulty_mide": {
		"medio": 2,
		"itinerario": 2,
		"desplazamiento": 2,
		"esfuerzo": 5
	},
	"est_duration_min": 625,
	"water_points": [
		"Fuente (km 0.0, a 89 m del track; OSM, no verificado en campo)",
		"Manantial \"Font de Santa Maria\" (km 1.9, a 31 m del track; OSM, no verificado en campo)",
		"Manantial \"Font de l'Om\" (km 11.1, a 25 m del track; OSM, no verificado en campo)",
		"Manantial \"Font del Serro\" (km 13.4, a 97 m del track; OSM, no verificado en campo)",
		"Manantial \"els Abeuradors\" (km 14.7, a 5 m del track; OSM, no verificado en campo)",
		"Fuente (km 15.4, a 3 m del track; OSM, no verificado en campo)",
		"Fuente (km 15.6, a 67 m del track; OSM, no verificado en campo)",
		"Fuente (km 15.6, a 66 m del track; OSM, no verificado en campo)",
		"Fuente \"Font de la Nevera\" (km 15.7, a 15 m del track; OSM, no verificado en campo)",
		"Fuente (km 15.9, a 7 m del track; OSM, no verificado en campo)",
		"Fuente (km 16.1, a 58 m del track; OSM, no verificado en campo)",
		"Fuente \"Font del Rellotge\" (km 16.1, a 17 m del track; OSM, no verificado en campo)",
		"Fuente (km 17.4, a 5 m del track; OSM, no verificado en campo)",
		"Manantial \"Fonts del Llosar\" (km 18.1, a 17 m del track; OSM, no verificado en campo)",
		"Manantial \"Font d'Horta\" (km 24.0, a 24 m del track; OSM, no verificado en campo)",
		"Manantial \"Font de Sant Miquel\" (km 27.5, a 3 m del track; OSM, no verificado en campo)",
		"Manantial \"Fuente de Salla\" (km 30.6, a 10 m del track; OSM, no verificado en campo)",
		"Fuente (km 31.3, a 6 m del track; OSM, no verificado en campo)",
		"Fuente \"Fuente Nueva\" (km 31.3, a 9 m del track; OSM, no verificado en campo)"
	],
	"water_points_geo": [
		{
			"name": null,
			"kind": "fuente",
			"lat": 40.3373259,
			"lon": -0.1652337,
			"km": 0,
			"dist_m": 89
		},
		{
			"name": "Font de Santa Maria",
			"kind": "manantial",
			"lat": 40.3415216,
			"lon": -0.1786404,
			"km": 1.9,
			"dist_m": 31
		},
		{
			"name": "Font de l'Om",
			"kind": "manantial",
			"lat": 40.3978949,
			"lon": -0.2229547,
			"km": 11.1,
			"dist_m": 25
		},
		{
			"name": "Font del Serro",
			"kind": "manantial",
			"lat": 40.4106992,
			"lon": -0.2388295,
			"km": 13.4,
			"dist_m": 97
		},
		{
			"name": "els Abeuradors",
			"kind": "manantial",
			"lat": 40.4180183,
			"lon": -0.2495053,
			"km": 14.7,
			"dist_m": 5
		},
		{
			"name": null,
			"kind": "fuente",
			"lat": 40.423084,
			"lon": -0.2538124,
			"km": 15.4,
			"dist_m": 3
		},
		{
			"name": null,
			"kind": "fuente",
			"lat": 40.4249059,
			"lon": -0.255779,
			"km": 15.6,
			"dist_m": 67
		},
		{
			"name": null,
			"kind": "fuente",
			"lat": 40.424905,
			"lon": -0.2557753,
			"km": 15.6,
			"dist_m": 66
		},
		{
			"name": "Font de la Nevera",
			"kind": "fuente",
			"lat": 40.426,
			"lon": -0.2563914,
			"km": 15.7,
			"dist_m": 15
		},
		{
			"name": null,
			"kind": "fuente",
			"lat": 40.426895,
			"lon": -0.2575959,
			"km": 15.9,
			"dist_m": 7
		},
		{
			"name": "Font del Rellotge",
			"kind": "fuente",
			"lat": 40.4285831,
			"lon": -0.2593288,
			"km": 16.1,
			"dist_m": 17
		},
		{
			"name": null,
			"kind": "fuente",
			"lat": 40.42751,
			"lon": -0.259154,
			"km": 16.1,
			"dist_m": 58
		},
		{
			"name": null,
			"kind": "fuente",
			"lat": 40.4382332,
			"lon": -0.2675626,
			"km": 17.4,
			"dist_m": 5
		},
		{
			"name": "Fonts del Llosar",
			"kind": "manantial",
			"lat": 40.4404361,
			"lon": -0.2727052,
			"km": 18.1,
			"dist_m": 17
		},
		{
			"name": "Font d'Horta",
			"kind": "manantial",
			"lat": 40.4373731,
			"lon": -0.3129466,
			"km": 24,
			"dist_m": 24
		},
		{
			"name": "Font de Sant Miquel",
			"kind": "manantial",
			"lat": 40.4633804,
			"lon": -0.3096076,
			"km": 27.5,
			"dist_m": 3
		},
		{
			"name": "Fuente de Salla",
			"kind": "manantial",
			"lat": 40.4784143,
			"lon": -0.3145061,
			"km": 30.6,
			"dist_m": 10
		},
		{
			"name": "Fuente Nueva",
			"kind": "fuente",
			"lat": 40.4816361,
			"lon": -0.319413,
			"km": 31.3,
			"dist_m": 9
		},
		{
			"name": null,
			"kind": "fuente",
			"lat": 40.4817317,
			"lon": -0.3194761,
			"km": 31.3,
			"dist_m": 6
		}
	],
	"pois": [
		{
			"name": "Portal de la Font",
			"type": "patrimonio",
			"lat": 40.3375945,
			"lon": -0.1653671,
			"km": 0,
			"dist_m": 117
		},
		{
			"name": "el Peiró",
			"type": "patrimonio",
			"lat": 40.3372645,
			"lon": -0.1629625,
			"km": 0,
			"dist_m": 128
		},
		{
			"name": "Arc de la Porta Nova",
			"type": "patrimonio",
			"lat": 40.3374733,
			"lon": -0.1657731,
			"km": 0,
			"dist_m": 134
		},
		{
			"name": "el Peiró",
			"type": "patrimonio",
			"lat": 40.3364081,
			"lon": -0.1665003,
			"km": 0.3,
			"dist_m": 18
		},
		{
			"name": "Mirador del Cinglet",
			"type": "mirador",
			"lat": 40.3372762,
			"lon": -0.1664455,
			"km": 0.3,
			"dist_m": 109
		},
		{
			"name": "Mirador del Castell",
			"type": "mirador",
			"lat": 40.3374876,
			"lon": -0.1667792,
			"km": 0.3,
			"dist_m": 120
		},
		{
			"name": "Castell de Culla",
			"type": "cumbre",
			"lat": 40.3375902,
			"lon": -0.166706,
			"km": 0.3,
			"dist_m": 133
		},
		{
			"name": "Porta de la Barbacana",
			"type": "patrimonio",
			"lat": 40.337593,
			"lon": -0.166261,
			"km": 0.3,
			"dist_m": 148
		},
		{
			"name": "Portal de Sant Roc",
			"type": "patrimonio",
			"lat": 40.4237712,
			"lon": -0.2542424,
			"km": 15.5,
			"dist_m": 27
		},
		{
			"name": "Peiró de la Joia",
			"type": "patrimonio",
			"lat": 40.441688,
			"lon": -0.2701873,
			"km": 17.9,
			"dist_m": 34
		}
	],
	"escape_routes": [],
	"highlights": [],
	"best_season": [],
	"best_start_time": null,
	"shade_ratio": 0.27,
	"gpx": "pr-cv-1.gpx",
	"links": {
		"femecv": "https://senders.femecv.com/es/sendero/ver/pr-cv-1",
		"wikiloc": null
	},
	"alternatives": [
		"pr-cv-225",
		"gr-7-e29",
		"pr-cv-297"
	],
	"notes_rain": null,
	"bbox": [
		-0.320339994505048,
		40.335830971598625,
		-0.164365014061332,
		40.48178102821112
	],
	"sources": [
		"Ficha FEMECV https://senders.femecv.com/es/sendero/ver/pr-cv-1 (crawl 2026-06-11): nombre, estado \"Sin controles de calidad\", distancia, desniveles, horario teórico, MIDE, modalidad, municipio, comarca",
		"OSM Overpass (enrich 2026-06-20): fuentes de agua, sombra estimada y alternativas por proximidad — no verificado en campo",
		"GPX pr-cv-1.gpx (derivados: inicio, bbox)"
	],
	"federacion": "FEMECV",
	"comunidad": "Comunitat Valenciana",
	"capabilities": {
		"estado": true,
		"mide": true,
		"agua": true,
		"etapas": true,
		"descripcion": true,
		"fauna": true,
		"escapes": true
	}
}
