{
	"id": "pr-cv-203",
	"name": "PR-CV 203 RIO GRANDE - ABRIGO DE VORO",
	"type": "PR",
	"status": "con_reservas",
	"status_detail": "Control de calidad condicionado",
	"municipality": "Quesa",
	"zone": "canal-de-navarres",
	"aemet_municipio": null,
	"start": {
		"lat": 39.09231696277857,
		"lon": -0.777050033211708,
		"name": "Charcos de Quesa. Quesa"
	},
	"end": {
		"lat": 39.09231696277857,
		"lon": -0.777050033211708
	},
	"distance_km": 14.5,
	"ascent_m": 405,
	"descent_m": 405,
	"circular": true,
	"difficulty_mide": {
		"medio": 3,
		"itinerario": 2,
		"desplazamiento": 3,
		"esfuerzo": 3
	},
	"est_duration_min": 270,
	"water_points": [
		"Manantial \"Fuente Los Charcos\" (km 0.7, a 85 m del track; OSM, no verificado en campo)",
		"Fuente (km 1.8, a 41 m del track; OSM, no verificado en campo)"
	],
	"water_points_geo": [
		{
			"name": "Fuente Los Charcos",
			"kind": "manantial",
			"lat": 39.0887306,
			"lon": -0.7832957,
			"km": 0.7,
			"dist_m": 85
		},
		{
			"name": null,
			"kind": "fuente",
			"lat": 39.0821218,
			"lon": -0.779449,
			"km": 1.8,
			"dist_m": 41
		}
	],
	"pois": [
		{
			"name": "Cueva del Carbo",
			"type": "refugio",
			"lat": 39.0869186,
			"lon": -0.7802913,
			"km": 1,
			"dist_m": 9
		},
		{
			"name": "Casa Cueva",
			"type": "patrimonio",
			"lat": 39.0646234,
			"lon": -0.7830773,
			"km": 5.4,
			"dist_m": 58
		},
		{
			"name": "Abrigo del Voro (Pinturas rupestres)",
			"type": "patrimonio",
			"lat": 39.0655363,
			"lon": -0.785476,
			"km": 5.8,
			"dist_m": 14
		},
		{
			"name": "Puntal de la Sima",
			"type": "cumbre",
			"lat": 39.0640216,
			"lon": -0.7884557,
			"km": 6.3,
			"dist_m": 8
		}
	],
	"escape_routes": [],
	"highlights": [],
	"best_season": [],
	"best_start_time": null,
	"shade_ratio": 0.01,
	"gpx": "pr-cv-203.gpx",
	"links": {
		"femecv": "https://senders.femecv.com/es/sendero/ver/pr-cv-203",
		"wikiloc": null
	},
	"alternatives": [
		"pr-cv-204",
		"pr-cv-235",
		"gr-332-e03"
	],
	"notes_rain": null,
	"bbox": [
		-0.809638034552336,
		39.06155596487224,
		-0.776355005800724,
		39.09756696783006
	],
	"sources": [
		"Ficha FEMECV https://senders.femecv.com/es/sendero/ver/pr-cv-203 (crawl 2026-06-11): nombre, estado \"Control de calidad condicionado\", distancia, desniveles, horario teórico, MIDE, modalidad, municipio, comarca",
		"OSM Overpass (enrich 2026-06-20): fuentes de agua, sombra estimada y alternativas por proximidad — no verificado en campo",
		"GPX pr-cv-203.gpx (derivados: inicio, bbox)"
	],
	"federacion": "FEMECV",
	"comunidad": "Comunitat Valenciana",
	"capabilities": {
		"estado": true,
		"mide": true,
		"agua": true,
		"etapas": true,
		"descripcion": true,
		"fauna": true,
		"escapes": true
	}
}
