{
	"id": "pr-cv-340",
	"name": "PR-CV 340 SENDER AL CIM D'OLTA",
	"type": "PR",
	"status": "con_reservas",
	"status_detail": "Sin controles de calidad",
	"municipality": "Calpe/Calp",
	"zone": "marina-alta",
	"aemet_municipio": null,
	"start": {
		"lat": 38.65838097408414,
		"lon": 0.026521012187004,
		"name": "Zona de acampada de Oltà"
	},
	"distance_km": 9.3,
	"ascent_m": 515,
	"descent_m": 515,
	"circular": false,
	"difficulty_mide": {
		"medio": 1,
		"itinerario": 2,
		"desplazamiento": 2,
		"esfuerzo": 3
	},
	"est_duration_min": 205,
	"water_points": [
		"Fuente (km 0.5, a 9 m del track; OSM, no verificado en campo)",
		"Fuente (km 0.8, a 19 m del track; OSM, no verificado en campo)"
	],
	"water_points_geo": [
		{
			"name": null,
			"kind": "fuente",
			"lat": 38.6565459,
			"lon": 0.0252449,
			"km": 0.5,
			"dist_m": 9
		},
		{
			"name": null,
			"kind": "fuente",
			"lat": 38.6540729,
			"lon": 0.0247499,
			"km": 0.8,
			"dist_m": 19
		}
	],
	"pois": [
		{
			"name": "el Dit d'Oltà",
			"type": "cumbre",
			"lat": 38.6611757,
			"lon": 0.0147044,
			"km": 3.5,
			"dist_m": 9
		},
		{
			"name": "Finca Pastor",
			"type": "patrimonio",
			"lat": 38.659914,
			"lon": 0.0100868,
			"km": 7,
			"dist_m": 14
		}
	],
	"escape_routes": [],
	"highlights": [],
	"best_season": [],
	"best_start_time": null,
	"shade_ratio": 0.14,
	"gpx": "pr-cv-340.gpx",
	"links": {
		"femecv": "https://senders.femecv.com/es/sendero/ver/pr-cv-340",
		"wikiloc": null
	},
	"alternatives": [
		"pr-cv-7",
		"sl-cv-136",
		"pr-cv-388"
	],
	"notes_rain": null,
	"bbox": [
		0.008349968120456,
		38.64787995815277,
		0.026521012187004,
		38.66366601549089
	],
	"sources": [
		"Ficha FEMECV https://senders.femecv.com/es/sendero/ver/pr-cv-340 (crawl 2026-06-11): nombre, estado \"Sin controles de calidad\", distancia, desniveles, horario teórico, MIDE, modalidad, municipio, comarca",
		"OSM Overpass (enrich 2026-06-20): fuentes de agua, sombra estimada y alternativas por proximidad — no verificado en campo",
		"GPX pr-cv-340.gpx (derivados: inicio, bbox)"
	]
}
