{
	"id": "pr-cv-244",
	"name": "PR-CV 244 COLLET DELS CASTELLANS",
	"type": "PR",
	"status": "con_reservas",
	"status_detail": "Sin controles de calidad",
	"municipality": "Todolella",
	"zone": "ports",
	"aemet_municipio": null,
	"start": {
		"lat": 40.644981963559985,
		"lon": -0.245923027396202,
		"name": "C/ Carretera, 2"
	},
	"end": {
		"lat": 40.67227201536298,
		"lon": -0.288239987567067
	},
	"distance_km": 8.3,
	"ascent_m": 495,
	"descent_m": 175,
	"circular": false,
	"difficulty_mide": {
		"medio": 2,
		"itinerario": 2,
		"desplazamiento": 2,
		"esfuerzo": 2
	},
	"est_duration_min": 170,
	"water_points": [
		"Fuente (km 0.2, a 7 m del track; OSM, no verificado en campo)",
		"Manantial \"Font del Xorret\" (km 0.4, a 36 m del track; OSM, no verificado en campo)"
	],
	"water_points_geo": [
		{
			"name": null,
			"kind": "fuente",
			"lat": 40.6460621,
			"lon": -0.2473463,
			"km": 0.2,
			"dist_m": 7
		},
		{
			"name": "Font del Xorret",
			"kind": "manantial",
			"lat": 40.6474273,
			"lon": -0.248815,
			"km": 0.4,
			"dist_m": 36
		}
	],
	"pois": [
		{
			"name": "Peiró de la Mare de Déu",
			"type": "patrimonio",
			"lat": 40.6437383,
			"lon": -0.2456881,
			"km": 0,
			"dist_m": 140
		},
		{
			"name": "Lloma dels Castellans",
			"type": "cumbre",
			"lat": 40.6455454,
			"lon": -0.261554,
			"km": 2.1,
			"dist_m": 33
		},
		{
			"name": "Observatorio Astronómico Astropunt del paraje de Santa Bárbara",
			"type": "mirador",
			"lat": 40.6474449,
			"lon": -0.2649457,
			"km": 2.5,
			"dist_m": 16
		},
		{
			"name": "Peiró de Santa Bàrbera",
			"type": "patrimonio",
			"lat": 40.6477082,
			"lon": -0.266683,
			"km": 2.6,
			"dist_m": 4
		},
		{
			"name": "Peiró de Sant Pere",
			"type": "patrimonio",
			"lat": 40.6504881,
			"lon": -0.2806055,
			"km": 3.9,
			"dist_m": 26
		},
		{
			"name": "Mola de la Todolella",
			"type": "cumbre",
			"lat": 40.6736072,
			"lon": -0.2930392,
			"km": 7.8,
			"dist_m": 79
		}
	],
	"escape_routes": [],
	"highlights": [],
	"best_season": [],
	"best_start_time": null,
	"shade_ratio": 0.1,
	"gpx": "pr-cv-244.gpx",
	"links": {
		"femecv": "https://senders.femecv.com/es/sendero/ver/pr-cv-244",
		"wikiloc": null
	},
	"alternatives": [
		"gr-331-e06",
		"pr-cv-228",
		"pr-cv-117"
	],
	"notes_rain": null,
	"bbox": [
		-0.299190022051334,
		40.6422580126673,
		-0.245923027396202,
		40.67289596423507
	],
	"sources": [
		"Ficha FEMECV https://senders.femecv.com/es/sendero/ver/pr-cv-244 (crawl 2026-06-11): nombre, estado \"Sin controles de calidad\", distancia, desniveles, horario teórico, MIDE, modalidad, municipio, comarca",
		"OSM Overpass (enrich 2026-06-20): fuentes de agua, sombra estimada y alternativas por proximidad — no verificado en campo",
		"GPX pr-cv-244.gpx (derivados: inicio, bbox)"
	]
}
