{
	"id": "pr-cv-421",
	"name": "PR-CV 421 RUTA BERNARDINA",
	"type": "PR",
	"status": "con_reservas",
	"status_detail": "Sin controles de calidad",
	"municipality": "Carlet",
	"zone": "ribera-alta",
	"aemet_municipio": null,
	"start": {
		"lat": 39.23356996849179,
		"lon": -0.533490031957626,
		"name": "Ermita de Sant Bernat"
	},
	"end": {
		"lat": 39.15385002270341,
		"lon": -0.446039959788322
	},
	"distance_km": 15,
	"ascent_m": 35,
	"descent_m": 75,
	"circular": false,
	"difficulty_mide": {
		"medio": 1,
		"itinerario": 2,
		"desplazamiento": 2,
		"esfuerzo": 3
	},
	"est_duration_min": 230,
	"water_points": [
		"Fuente (km 2.4, a 7 m del track; OSM, no verificado en campo)",
		"Fuente (km 9.0, a 32 m del track; OSM, no verificado en campo)"
	],
	"water_points_geo": [
		{
			"name": null,
			"kind": "fuente",
			"lat": 39.2238233,
			"lon": -0.5155774,
			"km": 2.4,
			"dist_m": 7
		},
		{
			"name": null,
			"kind": "fuente",
			"lat": 39.1811372,
			"lon": -0.4794051,
			"km": 9,
			"dist_m": 32
		}
	],
	"pois": [
		{
			"name": "Ogiva de Santa Maria",
			"type": "patrimonio",
			"lat": 39.1536886,
			"lon": -0.4459362,
			"km": 14.9,
			"dist_m": 20
		}
	],
	"escape_routes": [],
	"highlights": [],
	"best_season": [],
	"best_start_time": null,
	"shade_ratio": 0,
	"gpx": "pr-cv-421.gpx",
	"links": {
		"femecv": "https://senders.femecv.com/es/sendero/ver/pr-cv-421",
		"wikiloc": null
	},
	"alternatives": [
		"pr-cv-429",
		"sl-cv-145",
		"gr-239-e02"
	],
	"notes_rain": null,
	"bbox": [
		-0.5335000064224,
		39.150340016931295,
		-0.445330012589693,
		39.2335800267756
	],
	"sources": [
		"Ficha FEMECV https://senders.femecv.com/es/sendero/ver/pr-cv-421 (crawl 2026-06-11): nombre, estado \"Sin controles de calidad\", distancia, desniveles, horario teórico, MIDE, modalidad, municipio, comarca",
		"OSM Overpass (enrich 2026-06-20): fuentes de agua, sombra estimada y alternativas por proximidad — no verificado en campo",
		"GPX pr-cv-421.gpx (derivados: inicio, bbox)"
	],
	"federacion": "FEMECV",
	"comunidad": "Comunitat Valenciana",
	"capabilities": {
		"estado": true,
		"mide": true,
		"agua": true,
		"etapas": true,
		"descripcion": true,
		"fauna": true,
		"escapes": true
	}
}
