{
	"id": "pr-cv-158",
	"name": "PR-CV 158 SIERRA DEL CARRASCAL DE PARCENT",
	"type": "PR",
	"status": "homologado",
	"status_detail": "Control de calidad positivo",
	"municipality": "Parcent",
	"zone": "marina-alta",
	"aemet_municipio": null,
	"start": {
		"lat": 38.74466001056135,
		"lon": -0.066709974780679,
		"name": "Cooperativa, Calle de la Era. Parcent"
	},
	"end": {
		"lat": 38.74462002888322,
		"lon": -0.066669993102551
	},
	"distance_km": 14.7,
	"ascent_m": 765,
	"descent_m": 765,
	"circular": true,
	"difficulty_mide": {
		"medio": 2,
		"itinerario": 2,
		"desplazamiento": 2,
		"esfuerzo": 3
	},
	"est_duration_min": 315,
	"water_points": [
		"Manantial \"Font de la Foia\" (km 11.4, a 12 m del track; OSM, no verificado en campo)",
		"Fuente (km 14.1, a 5 m del track; OSM, no verificado en campo)"
	],
	"water_points_geo": [
		{
			"name": "Font de la Foia",
			"kind": "manantial",
			"lat": 38.7313247,
			"lon": -0.0835124,
			"km": 11.4,
			"dist_m": 12
		},
		{
			"name": null,
			"kind": "fuente",
			"lat": 38.744574,
			"lon": -0.0666668,
			"km": 14.1,
			"dist_m": 5
		}
	],
	"pois": [
		{
			"name": "Coll de Rates",
			"type": "mirador",
			"lat": 38.7249551,
			"lon": -0.0579861,
			"km": 3.3,
			"dist_m": 7
		},
		{
			"name": "Coll de Rates",
			"type": "mirador",
			"lat": 38.7237364,
			"lon": -0.0612773,
			"km": 3.7,
			"dist_m": 16
		},
		{
			"name": "Cim Carrascal",
			"type": "cumbre",
			"lat": 38.723344,
			"lon": -0.0891085,
			"km": 7.5,
			"dist_m": 13
		},
		{
			"name": "Tossal d'Alpolupi",
			"type": "cumbre",
			"lat": 38.7279082,
			"lon": -0.0966502,
			"km": 8.3,
			"dist_m": 46
		}
	],
	"escape_routes": [],
	"highlights": [],
	"best_season": [],
	"best_start_time": null,
	"shade_ratio": 0,
	"gpx": "pr-cv-158.gpx",
	"links": {
		"femecv": "https://senders.femecv.com/es/sendero/ver/pr-cv-158",
		"wikiloc": null
	},
	"alternatives": [
		"sl-cv-193",
		"pr-cv-425",
		"pr-cv-426"
	],
	"notes_rain": null,
	"bbox": [
		-0.098560033366084,
		38.72138002887368,
		-0.055600013583899,
		38.744699992239475
	],
	"sources": [
		"Ficha FEMECV https://senders.femecv.com/es/sendero/ver/pr-cv-158 (crawl 2026-06-11): nombre, estado \"Control de calidad positivo\", distancia, desniveles, horario teórico, MIDE, modalidad, municipio, comarca",
		"OSM Overpass (enrich 2026-06-20): fuentes de agua, sombra estimada y alternativas por proximidad — no verificado en campo",
		"GPX pr-cv-158.gpx (derivados: inicio, bbox)"
	]
}
