{
	"id": "pr-cv-215",
	"name": "PR-CV 215 MORELLA - HERBESET",
	"type": "PR",
	"status": "con_reservas",
	"status_detail": "Control de calidad condicionado",
	"municipality": "Morella",
	"zone": "ports",
	"aemet_municipio": null,
	"start": {
		"lat": 40.622144965454936,
		"lon": -0.09997196495533,
		"name": "Plaça de Sant Miquel. Morella"
	},
	"distance_km": 12.3,
	"ascent_m": 460,
	"descent_m": 290,
	"circular": false,
	"difficulty_mide": {
		"medio": 2,
		"itinerario": 2,
		"desplazamiento": 2,
		"esfuerzo": 3
	},
	"est_duration_min": 220,
	"water_points": [
		"Fuente (km 0.3, a 4 m del track; OSM, no verificado en campo)",
		"Fuente (km 0.3, a 7 m del track; OSM, no verificado en campo)",
		"Fuente (km 12.2, a 98 m del track; OSM, no verificado en campo)"
	],
	"water_points_geo": [
		{
			"name": null,
			"kind": "fuente",
			"lat": 40.6244093,
			"lon": -0.1003236,
			"km": 0.3,
			"dist_m": 7
		},
		{
			"name": null,
			"kind": "fuente",
			"lat": 40.6242469,
			"lon": -0.100236,
			"km": 0.3,
			"dist_m": 4
		},
		{
			"name": null,
			"kind": "fuente",
			"lat": 40.6620232,
			"lon": -0.0191815,
			"km": 12.2,
			"dist_m": 98
		}
	],
	"pois": [
		{
			"name": "Portal de Sant Miquel",
			"type": "patrimonio",
			"lat": 40.6217327,
			"lon": -0.0991148,
			"km": 0,
			"dist_m": 81
		},
		{
			"name": "Torre del Panto",
			"type": "patrimonio",
			"lat": 40.6210263,
			"lon": -0.100653,
			"km": 0,
			"dist_m": 136
		},
		{
			"name": "Nevera de Morella",
			"type": "patrimonio",
			"lat": 40.6218541,
			"lon": -0.1005158,
			"km": 0,
			"dist_m": 56
		},
		{
			"name": "Portal de la Nevera",
			"type": "patrimonio",
			"lat": 40.6214335,
			"lon": -0.0999303,
			"km": 0,
			"dist_m": 77
		},
		{
			"name": "Conxa Dolz",
			"type": "patrimonio",
			"lat": 40.627635,
			"lon": -0.0978656,
			"km": 0.8,
			"dist_m": 35
		},
		{
			"name": "Collet de la Querola",
			"type": "cumbre",
			"lat": 40.6280978,
			"lon": -0.0939739,
			"km": 1.1,
			"dist_m": 117
		},
		{
			"name": "Mirador del Mas de Bessó",
			"type": "mirador",
			"lat": 40.6354769,
			"lon": -0.0970604,
			"km": 2,
			"dist_m": 1
		},
		{
			"name": "Peiró de Sant Antoni i Santa Bàrbera",
			"type": "patrimonio",
			"lat": 40.6405964,
			"lon": -0.082318,
			"km": 4.1,
			"dist_m": 5
		},
		{
			"name": "Peiró de Sant Antoni",
			"type": "patrimonio",
			"lat": 40.6589439,
			"lon": -0.0301584,
			"km": 10.6,
			"dist_m": 6
		}
	],
	"escape_routes": [],
	"highlights": [],
	"best_season": [],
	"best_start_time": null,
	"shade_ratio": 0.13,
	"gpx": "pr-cv-215.gpx",
	"links": {
		"femecv": "https://senders.femecv.com/es/sendero/ver/pr-cv-215",
		"wikiloc": null
	},
	"alternatives": [
		"gr-331-e09",
		"sl-cv-89",
		"gr-7-e27"
	],
	"notes_rain": null,
	"bbox": [
		-0.100469011813402,
		40.622121999040246,
		-0.016971006989479,
		40.66114797256887
	],
	"sources": [
		"Ficha FEMECV https://senders.femecv.com/es/sendero/ver/pr-cv-215 (crawl 2026-06-11): nombre, estado \"Control de calidad condicionado\", distancia, desniveles, horario teórico, MIDE, modalidad, municipio, comarca",
		"OSM Overpass (enrich 2026-06-20): fuentes de agua, sombra estimada y alternativas por proximidad — no verificado en campo",
		"GPX pr-cv-215.gpx (derivados: inicio, bbox)"
	]
}
