{
	"id": "pr-cv-318",
	"name": "PR-CV 318 SENDER D'ALBALAT DELS TARONGERS",
	"type": "PR",
	"status": "con_reservas",
	"status_detail": "Control de calidad condicionado",
	"municipality": "Albalat dels Tarongers",
	"zone": "camp-de-morvedre",
	"aemet_municipio": null,
	"start": {
		"lat": 39.70201903022826,
		"lon": -0.337335979565978,
		"name": "Plaça Pla del Molí. Albalat dels Tarongers"
	},
	"distance_km": 12.8,
	"ascent_m": 480,
	"descent_m": 480,
	"circular": true,
	"difficulty_mide": {
		"medio": 1,
		"itinerario": 2,
		"desplazamiento": 2,
		"esfuerzo": 3
	},
	"est_duration_min": 250,
	"water_points": [
		"Fuente (km 4.2, a 7 m del track; OSM, no verificado en campo)",
		"Manantial \"Font de la Murta\" (km 5.1, a 18 m del track; OSM, no verificado en campo)"
	],
	"water_points_geo": [
		{
			"name": null,
			"kind": "fuente",
			"lat": 39.6903133,
			"lon": -0.3576253,
			"km": 4.2,
			"dist_m": 7
		},
		{
			"name": "Font de la Murta",
			"kind": "manantial",
			"lat": 39.6845018,
			"lon": -0.3603081,
			"km": 5.1,
			"dist_m": 18
		}
	],
	"pois": [
		{
			"name": "Llavaner del Garbí",
			"type": "patrimonio",
			"lat": 39.6992173,
			"lon": -0.3619895,
			"km": 3,
			"dist_m": 125
		},
		{
			"name": "la Rodana",
			"type": "cumbre",
			"lat": 39.6903248,
			"lon": -0.3393841,
			"km": 10.1,
			"dist_m": 100
		},
		{
			"name": "la Buitrera",
			"type": "cumbre",
			"lat": 39.6937017,
			"lon": -0.3410559,
			"km": 10.4,
			"dist_m": 122
		},
		{
			"name": "Castillo de Albalat dels Tarongers",
			"type": "patrimonio",
			"lat": 39.7024626,
			"lon": -0.3373652,
			"km": 12.8,
			"dist_m": 45
		}
	],
	"escape_routes": [],
	"highlights": [],
	"best_season": [],
	"best_start_time": null,
	"shade_ratio": 0,
	"gpx": "pr-cv-318.gpx",
	"links": {
		"femecv": "https://senders.femecv.com/es/sendero/ver/pr-cv-318",
		"wikiloc": null
	},
	"alternatives": [
		"pr-cv-369",
		"sl-cv-24",
		"sl-cv-23"
	],
	"notes_rain": null,
	"bbox": [
		-0.361935021355748,
		39.67882999219,
		-0.33415898680687,
		39.7020669747144
	],
	"sources": [
		"Ficha FEMECV https://senders.femecv.com/es/sendero/ver/pr-cv-318 (crawl 2026-06-11): nombre, estado \"Control de calidad condicionado\", distancia, desniveles, horario teórico, MIDE, modalidad, municipio, comarca",
		"OSM Overpass (enrich 2026-06-20): fuentes de agua, sombra estimada y alternativas por proximidad — no verificado en campo",
		"GPX pr-cv-318.gpx (derivados: inicio, bbox)"
	]
}
