{
	"id": "pr-cv-381",
	"name": "PR-CV 381 ALTO DE ALCOLA",
	"type": "PR",
	"status": "con_reservas",
	"status_detail": "Sin controles de calidad",
	"municipality": "Cofrentes",
	"zone": "valle-de-ayora",
	"aemet_municipio": null,
	"start": {
		"lat": 39.230394987389445,
		"lon": -1.062425002455711,
		"name": "Oficina de turismo"
	},
	"end": {
		"lat": 39.223443707451224,
		"lon": -1.0021579451859
	},
	"distance_km": 10.3,
	"ascent_m": 565,
	"descent_m": 420,
	"circular": false,
	"difficulty_mide": {
		"medio": 1,
		"itinerario": 2,
		"desplazamiento": 2,
		"esfuerzo": 3
	},
	"est_duration_min": 220,
	"water_points": [
		"Fuente (km 0.3, a 7 m del track; OSM, no verificado en campo)",
		"Fuente (km 0.4, a 55 m del track; OSM, no verificado en campo)",
		"Manantial \"Fuente de la Teja\" (km 6.4, a 9 m del track; OSM, no verificado en campo)"
	],
	"water_points_geo": [
		{
			"name": null,
			"kind": "fuente",
			"lat": 39.2281752,
			"lon": -1.0639346,
			"km": 0.3,
			"dist_m": 7
		},
		{
			"name": null,
			"kind": "fuente",
			"lat": 39.2277389,
			"lon": -1.0649703,
			"km": 0.4,
			"dist_m": 55
		},
		{
			"name": "Fuente de la Teja",
			"kind": "manantial",
			"lat": 39.2351052,
			"lon": -1.0261045,
			"km": 6.4,
			"dist_m": 9
		}
	],
	"pois": [
		{
			"name": "Balcón del Cabriel",
			"type": "mirador",
			"lat": 39.228642,
			"lon": -1.0654859,
			"km": 0.3,
			"dist_m": 143
		}
	],
	"escape_routes": [],
	"highlights": [],
	"best_season": [],
	"best_start_time": null,
	"shade_ratio": 0.3,
	"gpx": "pr-cv-381.gpx",
	"links": {
		"femecv": "https://senders.femecv.com/es/sendero/ver/pr-cv-381",
		"wikiloc": null
	},
	"alternatives": [
		"pr-cv-380",
		"pr-cv-379",
		"pr-cv-382"
	],
	"notes_rain": null,
	"bbox": [
		-1.064508995041251,
		39.220757726579905,
		-1.0021579451859,
		39.24030700698495
	],
	"sources": [
		"Ficha FEMECV https://senders.femecv.com/es/sendero/ver/pr-cv-381 (crawl 2026-06-11): nombre, estado \"Sin controles de calidad\", distancia, desniveles, horario teórico, MIDE, modalidad, municipio, comarca",
		"OSM Overpass (enrich 2026-06-20): fuentes de agua, sombra estimada y alternativas por proximidad — no verificado en campo",
		"GPX pr-cv-381.gpx (derivados: inicio, bbox)"
	]
}
