{
	"id": "pr-cv-104",
	"name": "PR-CV 104 AGRES - CAVA DON MIGUEL",
	"type": "PR",
	"status": "homologado",
	"status_detail": "Control de calidad positivo",
	"municipality": "Agres",
	"zone": "comtat",
	"aemet_municipio": null,
	"start": {
		"lat": 38.78048996441066,
		"lon": -0.516765033826232,
		"name": "Calle San Antonio,2. Agres"
	},
	"distance_km": 3.9,
	"ascent_m": 360,
	"descent_m": 15,
	"circular": false,
	"difficulty_mide": {
		"medio": 2,
		"itinerario": 2,
		"desplazamiento": 2,
		"esfuerzo": 2
	},
	"est_duration_min": 85,
	"water_points": [
		"Fuente \"Font d'Enmig\" (km 0.1, a 75 m del track; OSM, no verificado en campo)",
		"Fuente \"la Fonteta\" (km 0.1, a 83 m del track; OSM, no verificado en campo)",
		"Fuente \"Font del Raval\" (km 0.3, a 23 m del track; OSM, no verificado en campo)",
		"Fuente \"Font del Molí\" (km 0.3, a 88 m del track; OSM, no verificado en campo)",
		"Fuente \"Font de l'Assut\" (km 0.4, a 83 m del track; OSM, no verificado en campo)",
		"Fuente (km 1.3, a 46 m del track; OSM, no verificado en campo)"
	],
	"water_points_geo": [
		{
			"name": "Font d'Enmig",
			"kind": "fuente",
			"lat": 38.7801563,
			"lon": -0.5155994,
			"km": 0.1,
			"dist_m": 75
		},
		{
			"name": "la Fonteta",
			"kind": "fuente",
			"lat": 38.7793167,
			"lon": -0.5154166,
			"km": 0.1,
			"dist_m": 83
		},
		{
			"name": "Font del Molí",
			"kind": "fuente",
			"lat": 38.7778455,
			"lon": -0.5156064,
			"km": 0.3,
			"dist_m": 88
		},
		{
			"name": "Font del Raval",
			"kind": "fuente",
			"lat": 38.7784096,
			"lon": -0.5164422,
			"km": 0.3,
			"dist_m": 23
		},
		{
			"name": "Font de l'Assut",
			"kind": "fuente",
			"lat": 38.7776669,
			"lon": -0.51553,
			"km": 0.4,
			"dist_m": 83
		},
		{
			"name": null,
			"kind": "fuente",
			"lat": 38.7745157,
			"lon": -0.524713,
			"km": 1.3,
			"dist_m": 46
		}
	],
	"pois": [
		{
			"name": "Alt de la Cava",
			"type": "cumbre",
			"lat": 38.7661931,
			"lon": -0.5342672,
			"km": 3.8,
			"dist_m": 88
		}
	],
	"escape_routes": [],
	"highlights": [],
	"best_season": [],
	"best_start_time": null,
	"shade_ratio": 0.68,
	"gpx": "pr-cv-104.gpx",
	"links": {
		"femecv": "https://senders.femecv.com/es/sendero/ver/pr-cv-104",
		"wikiloc": null
	},
	"alternatives": [
		"sl-cv-168",
		"pr-cv-27",
		"pr-cv-389"
	],
	"notes_rain": null,
	"bbox": [
		-0.533282998949289,
		38.766381964087486,
		-0.516285002231598,
		38.78048996441066
	],
	"sources": [
		"Ficha FEMECV https://senders.femecv.com/es/sendero/ver/pr-cv-104 (crawl 2026-06-11): nombre, estado \"Control de calidad positivo\", distancia, desniveles, horario teórico, MIDE, modalidad, municipio, comarca",
		"OSM Overpass (enrich 2026-06-20): fuentes de agua, sombra estimada y alternativas por proximidad — no verificado en campo",
		"GPX pr-cv-104.gpx (derivados: inicio, bbox)"
	]
}
