{
	"id": "pr-cv-176",
	"name": "PR-CV 176 ANDILLA - OSET - ALCUBLAS",
	"type": "PR",
	"status": "con_reservas",
	"status_detail": "Sin controles de calidad",
	"municipality": "Andilla",
	"zone": "serranos",
	"aemet_municipio": null,
	"start": {
		"lat": 39.83544702641666,
		"lon": -0.812779990956187,
		"name": "Calle Llano Fuente, 2. Andilla"
	},
	"end": {
		"lat": 39.798506973311305,
		"lon": -0.707590039819479
	},
	"distance_km": 16.1,
	"ascent_m": 660,
	"descent_m": 780,
	"circular": false,
	"difficulty_mide": {
		"medio": 1,
		"itinerario": 2,
		"desplazamiento": 2,
		"esfuerzo": 2
	},
	"est_duration_min": 180,
	"water_points": [
		"Fuente (km 0.0, a 69 m del track; OSM, no verificado en campo)",
		"Manantial \"Fuente de Arriba\" (km 7.7, a 6 m del track; OSM, no verificado en campo)",
		"Fuente (km 16.1, a 5 m del track; OSM, no verificado en campo)"
	],
	"water_points_geo": [
		{
			"name": null,
			"kind": "fuente",
			"lat": 39.8358366,
			"lon": -0.813406,
			"km": 0,
			"dist_m": 69
		},
		{
			"name": "Fuente de Arriba",
			"kind": "manantial",
			"lat": 39.815714,
			"lon": -0.7739439,
			"km": 7.7,
			"dist_m": 6
		},
		{
			"name": null,
			"kind": "fuente",
			"lat": 39.7984945,
			"lon": -0.7076415,
			"km": 16.1,
			"dist_m": 5
		}
	],
	"pois": [
		{
			"name": "Nevero de Peñaparda",
			"type": "patrimonio",
			"lat": 39.8361905,
			"lon": -0.7805529,
			"km": 3.9,
			"dist_m": 15
		}
	],
	"escape_routes": [],
	"highlights": [],
	"best_season": [],
	"best_start_time": null,
	"shade_ratio": 0.16,
	"gpx": "pr-cv-176.gpx",
	"links": {
		"femecv": "https://senders.femecv.com/es/sendero/ver/pr-cv-176",
		"wikiloc": null
	},
	"alternatives": [
		"gr-7-e36",
		"gr-10-e07",
		"pr-cv-424"
	],
	"notes_rain": null,
	"bbox": [
		-0.813281983137131,
		39.79842399246991,
		-0.707590039819479,
		39.83889198862016
	],
	"sources": [
		"Ficha FEMECV https://senders.femecv.com/es/sendero/ver/pr-cv-176 (crawl 2026-06-11): nombre, estado \"Sin controles de calidad\", distancia, desniveles, horario teórico, MIDE, modalidad, municipio, comarca",
		"OSM Overpass (enrich 2026-06-20): fuentes de agua, sombra estimada y alternativas por proximidad — no verificado en campo",
		"GPX pr-cv-176.gpx (derivados: inicio, bbox)"
	],
	"federacion": "FEMECV",
	"comunidad": "Comunitat Valenciana",
	"capabilities": {
		"estado": true,
		"mide": true,
		"agua": true,
		"etapas": true,
		"descripcion": true,
		"fauna": true,
		"escapes": true
	}
}
