{
	"id": "pr-cv-100",
	"name": "PR-CV 100 RÒTOVA",
	"type": "PR",
	"status": "con_reservas",
	"status_detail": "Control de calidad condicionado",
	"municipality": "Ròtova",
	"zone": "safor",
	"aemet_municipio": null,
	"start": {
		"lat": 38.930406253784895,
		"lon": -0.26121698319912,
		"name": "Carrer Molinet, 35. Ròtova"
	},
	"end": {
		"lat": 38.93040005117655,
		"lon": -0.261193513870239
	},
	"distance_km": 9,
	"ascent_m": 520,
	"descent_m": 520,
	"circular": true,
	"difficulty_mide": {
		"medio": 1,
		"itinerario": 2,
		"desplazamiento": 2,
		"esfuerzo": 3
	},
	"est_duration_min": 200,
	"water_points": [
		"Manantial \"Font de les Galeries\" (km 2.3, a 5 m del track; OSM, no verificado en campo)",
		"Fuente (km 8.2, a 11 m del track; OSM, no verificado en campo)"
	],
	"water_points_geo": [
		{
			"name": "Font de les Galeries",
			"kind": "manantial",
			"lat": 38.936565,
			"lon": -0.2771124,
			"km": 2.3,
			"dist_m": 5
		},
		{
			"name": null,
			"kind": "fuente",
			"lat": 38.9327147,
			"lon": -0.2590265,
			"km": 8.2,
			"dist_m": 11
		}
	],
	"pois": [
		{
			"name": "Forn de Calç",
			"type": "patrimonio",
			"lat": 38.9364549,
			"lon": -0.2777188,
			"km": 2.4,
			"dist_m": 7
		},
		{
			"name": "el Picaio",
			"type": "mirador",
			"lat": 38.9401741,
			"lon": -0.287217,
			"km": 3.8,
			"dist_m": 8
		},
		{
			"name": "Alt de les Aligues",
			"type": "cumbre",
			"lat": 38.9453992,
			"lon": -0.291471,
			"km": 4.3,
			"dist_m": 148
		},
		{
			"name": "Penyo de Montoig",
			"type": "cumbre",
			"lat": 38.944182,
			"lon": -0.284383,
			"km": 4.9,
			"dist_m": 27
		},
		{
			"name": "Ceràmica a la Verge de la Salud",
			"type": "patrimonio",
			"lat": 38.9330904,
			"lon": -0.2590699,
			"km": 8.1,
			"dist_m": 9
		}
	],
	"escape_routes": [],
	"highlights": [],
	"best_season": [],
	"best_start_time": null,
	"shade_ratio": 0.14,
	"gpx": "pr-cv-100.gpx",
	"links": {
		"femecv": "https://senders.femecv.com/es/sendero/ver/pr-cv-100",
		"wikiloc": null
	},
	"alternatives": [
		"sl-cv-138",
		"pr-cv-343",
		"gr-236-e02"
	],
	"notes_rain": null,
	"bbox": [
		-0.290474351495504,
		38.92939003184438,
		-0.258296225219965,
		38.94453914836049
	],
	"sources": [
		"Ficha FEMECV https://senders.femecv.com/es/sendero/ver/pr-cv-100 (crawl 2026-06-11): nombre, estado \"Control de calidad condicionado\", distancia, desniveles, horario teórico, MIDE, modalidad, municipio, comarca",
		"OSM Overpass (enrich 2026-06-20): fuentes de agua, sombra estimada y alternativas por proximidad — no verificado en campo",
		"GPX pr-cv-100.gpx (derivados: inicio, bbox)"
	],
	"federacion": "FEMECV",
	"comunidad": "Comunitat Valenciana",
	"capabilities": {
		"estado": true,
		"mide": true,
		"agua": true,
		"etapas": true,
		"descripcion": true,
		"fauna": true,
		"escapes": true
	}
}
