{
	"id": "pr-cv-342",
	"name": "PR-CV 342 MONFORTE DEL CID - ORITO - SIERRA DE EL CID",
	"type": "PR",
	"status": "con_reservas",
	"status_detail": "Sin controles de calidad",
	"municipality": "Monforte del Cid",
	"zone": "vinalopo-mitja",
	"aemet_municipio": null,
	"start": {
		"lat": 38.38452902622521,
		"lon": -0.728580001741648,
		"name": "Parque Torre de la Noria"
	},
	"distance_km": 27.12,
	"ascent_m": 1064,
	"descent_m": 1064,
	"circular": true,
	"difficulty_mide": null,
	"est_duration_min": 770,
	"water_points": [
		"Manantial \"Fuente Santa o de San Pascual\" (km 26.4, a 25 m del track; OSM, no verificado en campo)",
		"Fuente (km 26.4, a 12 m del track; OSM, no verificado en campo)",
		"Fuente (km 26.8, a 48 m del track; OSM, no verificado en campo)"
	],
	"water_points_geo": [
		{
			"name": "Fuente Santa o de San Pascual",
			"kind": "manantial",
			"lat": 38.3781574,
			"lon": -0.686968,
			"km": 26.4,
			"dist_m": 25
		},
		{
			"name": null,
			"kind": "fuente",
			"lat": 38.3782413,
			"lon": -0.686851,
			"km": 26.4,
			"dist_m": 12
		},
		{
			"name": null,
			"kind": "fuente",
			"lat": 38.3777847,
			"lon": -0.6882047,
			"km": 26.8,
			"dist_m": 48
		}
	],
	"pois": [
		{
			"name": "Torre Árabe de Monforte del Cid",
			"type": "patrimonio",
			"lat": 38.3846422,
			"lon": -0.7284164,
			"km": 0,
			"dist_m": 19
		},
		{
			"name": "Cid",
			"type": "cumbre",
			"lat": 38.4538041,
			"lon": -0.7191452,
			"km": 12.1,
			"dist_m": 5
		}
	],
	"escape_routes": [],
	"highlights": [],
	"best_season": [],
	"best_start_time": null,
	"shade_ratio": 0,
	"gpx": "pr-cv-342.gpx",
	"links": {
		"femecv": "https://senders.femecv.com/es/sendero/ver/pr-cv-342",
		"wikiloc": null
	},
	"alternatives": [
		"sl-cv-126",
		"pr-cv-311",
		"pr-cv-325"
	],
	"notes_rain": null,
	"bbox": [
		-0.734544983133674,
		38.374058017507195,
		-0.675770994275808,
		38.4538649674505
	],
	"sources": [
		"Ficha FEMECV https://senders.femecv.com/es/sendero/ver/pr-cv-342 (crawl 2026-06-11): nombre, estado \"Sin controles de calidad\", distancia, horario teórico, modalidad, municipio, comarca",
		"OSM Overpass (enrich 2026-06-20): fuentes de agua, sombra estimada y alternativas por proximidad — no verificado en campo",
		"GPX pr-cv-342.gpx (derivados: desniveles, inicio, bbox)"
	]
}
