{
	"id": "pr-cv-466",
	"name": "PR-CV 466 CAMÍ DEL RIU GORGOS",
	"type": "PR",
	"status": "homologado",
	"status_detail": "En vigor",
	"municipality": "Gata de Gorgos",
	"zone": "marina-alta",
	"aemet_municipio": null,
	"start": {
		"lat": 38.77287198789418,
		"lon": 0.083052003756166,
		"name": "Parque del Raval. Gata de Gorgos"
	},
	"end": {
		"lat": 38.74368402175605,
		"lon": 0.004682969301939
	},
	"distance_km": 9.6,
	"ascent_m": 290,
	"descent_m": 175,
	"circular": false,
	"difficulty_mide": {
		"medio": 2,
		"itinerario": 2,
		"desplazamiento": 2,
		"esfuerzo": 2
	},
	"est_duration_min": 175,
	"water_points": [
		"Fuente (km 0.0, a 88 m del track; OSM, no verificado en campo)",
		"Fuente (km 0.2, a 5 m del track; OSM, no verificado en campo)"
	],
	"water_points_geo": [
		{
			"name": null,
			"kind": "fuente",
			"lat": 38.7735376,
			"lon": 0.0835937,
			"km": 0,
			"dist_m": 88
		},
		{
			"name": null,
			"kind": "fuente",
			"lat": 38.7724169,
			"lon": 0.0810164,
			"km": 0.2,
			"dist_m": 5
		}
	],
	"pois": [
		{
			"name": "Pedra 2001 (Francisco Sainz Jen Guy Ladoraye)",
			"type": "patrimonio",
			"lat": 38.7731103,
			"lon": 0.0832783,
			"km": 0,
			"dist_m": 33
		}
	],
	"escape_routes": [],
	"highlights": [],
	"best_season": [],
	"best_start_time": null,
	"shade_ratio": 0.14,
	"gpx": "pr-cv-466.gpx",
	"links": {
		"femecv": "https://senders.femecv.com/es/sendero/ver/pr-cv-466",
		"wikiloc": null
	},
	"alternatives": [
		"pr-cv-412",
		"pr-cv-53",
		"pr-cv-388"
	],
	"notes_rain": null,
	"bbox": [
		0.003830026835203,
		38.74368402175605,
		0.083052003756166,
		38.77319603227079
	],
	"sources": [
		"Ficha FEMECV https://senders.femecv.com/es/sendero/ver/pr-cv-466 (crawl 2026-06-11): nombre, estado \"En vigor\", distancia, desniveles, horario teórico, MIDE, modalidad, municipio, comarca",
		"OSM Overpass (enrich 2026-06-20): fuentes de agua, sombra estimada y alternativas por proximidad — no verificado en campo",
		"GPX pr-cv-466.gpx (derivados: inicio, bbox)"
	]
}
