{
	"id": "pr-cv-24",
	"name": "PR-CV 24 QUATRETONDETA - PLA DE LA CASA",
	"type": "PR",
	"status": "homologado",
	"status_detail": "Control de calidad positivo",
	"municipality": "Quatretondeta",
	"zone": "comtat",
	"aemet_municipio": null,
	"start": {
		"lat": 38.723656721413136,
		"lon": -0.3137700073421,
		"name": "Avda. del País Valencià. Quatretondeta"
	},
	"end": {
		"lat": 38.716518273577094,
		"lon": -0.274643283337355
	},
	"distance_km": 5.6,
	"ascent_m": 765,
	"descent_m": 35,
	"circular": false,
	"difficulty_mide": {
		"medio": 3,
		"itinerario": 2,
		"desplazamiento": 3,
		"esfuerzo": 3
	},
	"est_duration_min": 160,
	"water_points": [
		"Manantial \"Font de l'Espinal\" (km 2.5, a 1 m del track; OSM, no verificado en campo)",
		"Manantial \"Font Roja\" (km 3.8, a 6 m del track; OSM, no verificado en campo)"
	],
	"water_points_geo": [
		{
			"name": "Font de l'Espinal",
			"kind": "manantial",
			"lat": 38.7181208,
			"lon": -0.2961736,
			"km": 2.5,
			"dist_m": 1
		},
		{
			"name": "Font Roja",
			"kind": "manantial",
			"lat": 38.7138947,
			"lon": -0.2862099,
			"km": 3.8,
			"dist_m": 6
		}
	],
	"pois": [
		{
			"name": "Tossal de la Terra Nova",
			"type": "cumbre",
			"lat": 38.7243951,
			"lon": -0.3118581,
			"km": 0.1,
			"dist_m": 122
		},
		{
			"name": "Tossal Borreguer",
			"type": "cumbre",
			"lat": 38.7201057,
			"lon": -0.3114278,
			"km": 0.5,
			"dist_m": 96
		},
		{
			"name": "Pla de la Casa",
			"type": "cumbre",
			"lat": 38.7165256,
			"lon": -0.2746227,
			"km": 5.7,
			"dist_m": 1
		}
	],
	"escape_routes": [],
	"highlights": [],
	"best_season": [],
	"best_start_time": null,
	"shade_ratio": 0.27,
	"gpx": "pr-cv-24.gpx",
	"links": {
		"femecv": "https://senders.femecv.com/es/sendero/ver/pr-cv-24",
		"wikiloc": null
	},
	"alternatives": [
		"pr-cv-23",
		"pr-cv-168",
		"pr-cv-182"
	],
	"notes_rain": null,
	"bbox": [
		-0.3137700073421,
		38.71209011413157,
		-0.274432897567749,
		38.723656721413136
	],
	"sources": [
		"Ficha FEMECV https://senders.femecv.com/es/sendero/ver/pr-cv-24 (crawl 2026-06-11): nombre, estado \"Control de calidad positivo\", distancia, desniveles, horario teórico, MIDE, modalidad, municipio, comarca",
		"OSM Overpass (enrich 2026-06-20): fuentes de agua, sombra estimada y alternativas por proximidad — no verificado en campo",
		"GPX pr-cv-24.gpx (derivados: inicio, bbox)"
	]
}
