{
	"id": "pr-cv-425",
	"name": "PR-CV 425 CAMINO DEL MIRADOR DEL COLL DE RATES",
	"type": "PR",
	"status": "homologado",
	"status_detail": "Control de calidad positivo",
	"municipality": "Alcalalí",
	"zone": "marina-alta",
	"aemet_municipio": null,
	"start": {
		"lat": 38.74969501979649,
		"lon": -0.041741039603949,
		"name": "Plaça del Ajuntament, 1, Alcalalí"
	},
	"end": {
		"lat": 38.72496102936566,
		"lon": -0.057934960350394
	},
	"distance_km": 5,
	"ascent_m": 385,
	"descent_m": 65,
	"circular": false,
	"difficulty_mide": {
		"medio": 2,
		"itinerario": 2,
		"desplazamiento": 2,
		"esfuerzo": 2
	},
	"est_duration_min": 105,
	"water_points": [
		"Manantial \"Font de la Cava\" (km 0.1, a 90 m del track; OSM, no verificado en campo)"
	],
	"water_points_geo": [
		{
			"name": "Font de la Cava",
			"kind": "manantial",
			"lat": 38.7486115,
			"lon": -0.0409888,
			"km": 0.1,
			"dist_m": 90
		}
	],
	"pois": [
		{
			"name": "Mirador del Ravalet",
			"type": "mirador",
			"lat": 38.7490381,
			"lon": -0.0418114,
			"km": 0.1,
			"dist_m": 9
		},
		{
			"name": "Sénia de la Partida de les Mosqueres",
			"type": "patrimonio",
			"lat": 38.7396532,
			"lon": -0.0488287,
			"km": 1.5,
			"dist_m": 17
		},
		{
			"name": "Coll de Rates",
			"type": "mirador",
			"lat": 38.7249551,
			"lon": -0.0579861,
			"km": 5.2,
			"dist_m": 4
		}
	],
	"escape_routes": [],
	"highlights": [],
	"best_season": [],
	"best_start_time": null,
	"shade_ratio": 0,
	"gpx": "pr-cv-425.gpx",
	"links": {
		"femecv": "https://senders.femecv.com/es/sendero/ver/pr-cv-425",
		"wikiloc": null
	},
	"alternatives": [
		"sl-cv-193",
		"pr-cv-158",
		"sl-cv-119"
	],
	"notes_rain": null,
	"bbox": [
		-0.057934960350394,
		38.72496102936566,
		-0.041557978838682,
		38.749748999252915
	],
	"sources": [
		"Ficha FEMECV https://senders.femecv.com/es/sendero/ver/pr-cv-425 (crawl 2026-06-11): nombre, estado \"Control de calidad positivo\", distancia, desniveles, horario teórico, MIDE, modalidad, municipio, comarca",
		"OSM Overpass (enrich 2026-06-20): fuentes de agua, sombra estimada y alternativas por proximidad — no verificado en campo",
		"GPX pr-cv-425.gpx (derivados: inicio, bbox)"
	],
	"federacion": "FEMECV",
	"comunidad": "Comunitat Valenciana",
	"capabilities": {
		"estado": true,
		"mide": true,
		"agua": true,
		"etapas": true,
		"descripcion": true,
		"fauna": true,
		"escapes": true
	}
}
