{
	"id": "pr-cv-140",
	"name": "PR-CV 140 AIN - SUERAS POR BENITANDÚS",
	"type": "PR",
	"status": "homologado",
	"status_detail": "Control de calidad positivo",
	"municipality": "Ain",
	"zone": "plana-baixa",
	"aemet_municipio": null,
	"start": {
		"lat": 39.90088898688555,
		"lon": -0.340810026973486,
		"name": "Plaza José Sorribes Fuster"
	},
	"distance_km": 8.5,
	"ascent_m": 305,
	"descent_m": 500,
	"circular": false,
	"difficulty_mide": {
		"medio": 1,
		"itinerario": 2,
		"desplazamiento": 2,
		"esfuerzo": 2
	},
	"est_duration_min": 175,
	"water_points": [
		"Fuente \"Fuente de los Dos Caños\" (km 0.0, a 41 m del track; OSM, no verificado en campo)",
		"Fuente \"Font de Benitandús\" (km 5.3, a 4 m del track; OSM, no verificado en campo)",
		"Manantial \"Fuente Los Silverios\" (km 5.7, a 9 m del track; OSM, no verificado en campo)",
		"Manantial \"el Bassó de la Muntanyeta\" (km 8.5, a 56 m del track; OSM, no verificado en campo)",
		"Fuente (km 8.7, a 4 m del track; OSM, no verificado en campo)",
		"Fuente (km 8.8, a 11 m del track; OSM, no verificado en campo)",
		"Fuente (km 8.9, a 10 m del track; OSM, no verificado en campo)",
		"Fuente (km 8.9, a 12 m del track; OSM, no verificado en campo)",
		"Fuente (km 9.1, a 46 m del track; OSM, no verificado en campo)"
	],
	"water_points_geo": [
		{
			"name": "Fuente de los Dos Caños",
			"kind": "fuente",
			"lat": 39.900437,
			"lon": -0.3403491,
			"km": 0,
			"dist_m": 41
		},
		{
			"name": "Font de Benitandús",
			"kind": "fuente",
			"lat": 39.9298376,
			"lon": -0.3364666,
			"km": 5.3,
			"dist_m": 4
		},
		{
			"name": "Fuente Los Silverios",
			"kind": "manantial",
			"lat": 39.9326032,
			"lon": -0.3376992,
			"km": 5.7,
			"dist_m": 9
		},
		{
			"name": "el Bassó de la Muntanyeta",
			"kind": "manantial",
			"lat": 39.950398,
			"lon": -0.3354692,
			"km": 8.5,
			"dist_m": 56
		},
		{
			"name": null,
			"kind": "fuente",
			"lat": 39.9518675,
			"lon": -0.334239,
			"km": 8.7,
			"dist_m": 4
		},
		{
			"name": null,
			"kind": "fuente",
			"lat": 39.9525185,
			"lon": -0.333373,
			"km": 8.8,
			"dist_m": 11
		},
		{
			"name": null,
			"kind": "fuente",
			"lat": 39.952358,
			"lon": -0.3324312,
			"km": 8.9,
			"dist_m": 12
		},
		{
			"name": null,
			"kind": "fuente",
			"lat": 39.9523478,
			"lon": -0.3324749,
			"km": 8.9,
			"dist_m": 10
		},
		{
			"name": null,
			"kind": "fuente",
			"lat": 39.9509135,
			"lon": -0.3346357,
			"km": 9.1,
			"dist_m": 46
		}
	],
	"pois": [
		{
			"name": "Les Naves",
			"type": "cumbre",
			"lat": 39.9208644,
			"lon": -0.3290492,
			"km": 3.5,
			"dist_m": 140
		},
		{
			"name": "les Àguiles",
			"type": "cumbre",
			"lat": 39.9441742,
			"lon": -0.3369785,
			"km": 7.4,
			"dist_m": 94
		}
	],
	"escape_routes": [],
	"highlights": [],
	"best_season": [],
	"best_start_time": null,
	"shade_ratio": 0.24,
	"gpx": "pr-cv-140.gpx",
	"links": {
		"femecv": "https://senders.femecv.com/es/sendero/ver/pr-cv-140",
		"wikiloc": null
	},
	"alternatives": [
		"gr-36-e03",
		"sl-cv-29",
		"gr-333-e03"
	],
	"notes_rain": null,
	"bbox": [
		-0.340824024751782,
		39.90078396163881,
		-0.325205018743873,
		39.95247599668801
	],
	"sources": [
		"Ficha FEMECV https://senders.femecv.com/es/sendero/ver/pr-cv-140 (crawl 2026-06-11): nombre, estado \"Control de calidad positivo\", distancia, desniveles, horario teórico, MIDE, modalidad, municipio, comarca",
		"OSM Overpass (enrich 2026-06-20): fuentes de agua, sombra estimada y alternativas por proximidad — no verificado en campo",
		"GPX pr-cv-140.gpx (derivados: inicio, bbox)"
	]
}
