{
	"id": "pr-cv-456",
	"name": "PR-CV 456 RUTA DEL AZUD",
	"type": "PR",
	"status": "homologado",
	"status_detail": "En vigor",
	"municipality": "Tuéjar",
	"zone": "serranos",
	"aemet_municipio": null,
	"start": {
		"lat": 39.770190976560116,
		"lon": -1.041985983029008,
		"name": "Parque ermita de la Inmaculada. Tuéjar"
	},
	"end": {
		"lat": 39.77022198960185,
		"lon": -1.041944995522499
	},
	"distance_km": 13.8,
	"ascent_m": 425,
	"descent_m": 425,
	"circular": true,
	"difficulty_mide": {
		"medio": 2,
		"itinerario": 2,
		"desplazamiento": 2,
		"esfuerzo": 3
	},
	"est_duration_min": 260,
	"water_points": [
		"Fuente (km 2.3, a 21 m del track; OSM, no verificado en campo)",
		"Fuente (km 2.5, a 6 m del track; OSM, no verificado en campo)",
		"Manantial \"Nacimiento del Río Tuéjar\" (km 2.6, a 38 m del track; OSM, no verificado en campo)",
		"Fuente (km 11.7, a 31 m del track; OSM, no verificado en campo)"
	],
	"water_points_geo": [
		{
			"name": null,
			"kind": "fuente",
			"lat": 39.7820172,
			"lon": -1.039414,
			"km": 2.3,
			"dist_m": 21
		},
		{
			"name": null,
			"kind": "fuente",
			"lat": 39.7825619,
			"lon": -1.0383227,
			"km": 2.5,
			"dist_m": 6
		},
		{
			"name": "Nacimiento del Río Tuéjar",
			"kind": "manantial",
			"lat": 39.7837584,
			"lon": -1.0387881,
			"km": 2.6,
			"dist_m": 38
		},
		{
			"name": null,
			"kind": "fuente",
			"lat": 39.7816874,
			"lon": -1.0392199,
			"km": 11.7,
			"dist_m": 31
		}
	],
	"pois": [
		{
			"name": "Abrigos del Corral de la Silla",
			"type": "patrimonio",
			"lat": 39.7901114,
			"lon": -1.0345717,
			"km": 3.8,
			"dist_m": 15
		}
	],
	"escape_routes": [],
	"highlights": [],
	"best_season": [],
	"best_start_time": null,
	"shade_ratio": 0,
	"gpx": "pr-cv-456.gpx",
	"links": {
		"femecv": "https://senders.femecv.com/es/sendero/ver/pr-cv-456",
		"wikiloc": null
	},
	"alternatives": [
		"gr-7-e37",
		"gr-7-e38",
		"pr-cv-114"
	],
	"notes_rain": null,
	"bbox": [
		-1.049370020627976,
		39.770190976560116,
		-1.021318221464753,
		39.80468586087227
	],
	"sources": [
		"Ficha FEMECV https://senders.femecv.com/es/sendero/ver/pr-cv-456 (crawl 2026-06-11): nombre, estado \"En vigor\", distancia, desniveles, horario teórico, MIDE, modalidad, municipio, comarca",
		"OSM Overpass (enrich 2026-06-20): fuentes de agua, sombra estimada y alternativas por proximidad — no verificado en campo",
		"GPX pr-cv-456.gpx (derivados: inicio, bbox)"
	]
}
