{
	"id": "pr-cv-341",
	"name": "PR-CV 341 RUTA ETNOGRÁFICA DEL ALCALATÉN",
	"type": "PR",
	"status": "homologado",
	"status_detail": "Control de calidad positivo",
	"municipality": "Figueroles",
	"zone": "alcalaten",
	"aemet_municipio": null,
	"start": {
		"lat": 40.119306,
		"lon": -0.234808,
		"name": "Área recreativa Bassa Passà. Figueroles"
	},
	"end": {
		"lat": 40.119305,
		"lon": -0.234811
	},
	"distance_km": 16.4,
	"ascent_m": 710,
	"descent_m": 710,
	"circular": true,
	"difficulty_mide": {
		"medio": 2,
		"itinerario": 2,
		"desplazamiento": 2,
		"esfuerzo": 3
	},
	"est_duration_min": 335,
	"water_points": [
		"Manantial \"Font de la Carrerassa\" (km 15.5, a 10 m del track; OSM, no verificado en campo)",
		"Fuente (km 15.8, a 46 m del track; OSM, no verificado en campo)",
		"Fuente (km 15.9, a 10 m del track; OSM, no verificado en campo)",
		"Fuente (km 15.9, a 74 m del track; OSM, no verificado en campo)"
	],
	"water_points_geo": [
		{
			"name": "Font de la Carrerassa",
			"kind": "manantial",
			"lat": 40.1166464,
			"lon": -0.2398709,
			"km": 15.5,
			"dist_m": 10
		},
		{
			"name": null,
			"kind": "fuente",
			"lat": 40.1166334,
			"lon": -0.2374968,
			"km": 15.8,
			"dist_m": 46
		},
		{
			"name": null,
			"kind": "fuente",
			"lat": 40.1174081,
			"lon": -0.2379994,
			"km": 15.9,
			"dist_m": 10
		},
		{
			"name": null,
			"kind": "fuente",
			"lat": 40.1181292,
			"lon": -0.2383797,
			"km": 15.9,
			"dist_m": 74
		}
	],
	"pois": [
		{
			"name": "el Castellar",
			"type": "cumbre",
			"lat": 40.1192365,
			"lon": -0.2239979,
			"km": 1.3,
			"dist_m": 33
		},
		{
			"name": "Poblat Ibèric del Castellar",
			"type": "patrimonio",
			"lat": 40.1196261,
			"lon": -0.2236386,
			"km": 1.3,
			"dist_m": 3
		},
		{
			"name": "La Teuleria",
			"type": "patrimonio",
			"lat": 40.1192841,
			"lon": -0.2463579,
			"km": 14.2,
			"dist_m": 12
		}
	],
	"escape_routes": [],
	"highlights": [],
	"best_season": [],
	"best_start_time": null,
	"shade_ratio": 0,
	"gpx": "pr-cv-341.gpx",
	"links": {
		"femecv": "https://senders.femecv.com/es/sendero/ver/pr-cv-341",
		"wikiloc": null
	},
	"alternatives": [
		"pr-cv-326",
		"pr-cv-120",
		"pr-cv-357"
	],
	"notes_rain": null,
	"bbox": [
		-0.246769,
		40.115274,
		-0.19302,
		40.143892
	],
	"sources": [
		"Ficha FEMECV https://senders.femecv.com/es/sendero/ver/pr-cv-341 (crawl 2026-06-11): nombre, estado \"Control de calidad positivo\", distancia, desniveles, horario teórico, MIDE, modalidad, municipio, comarca",
		"OSM Overpass (enrich 2026-06-20): fuentes de agua, sombra estimada y alternativas por proximidad — no verificado en campo",
		"GPX pr-cv-341.gpx (derivados: inicio, bbox)"
	]
}
