{
	"id": "pr-cv-269",
	"name": "PR-CV 269 SENDERO DEL VENTÓS",
	"type": "PR",
	"status": "homologado",
	"status_detail": "Control de calidad positivo",
	"municipality": "Agost",
	"zone": "alacanti",
	"aemet_municipio": null,
	"start": {
		"lat": 38.43611201271415,
		"lon": -0.634928997606039,
		"name": "Carrer Campello, 2. Parque Lirainosaurus. Agost"
	},
	"end": {
		"lat": 38.47636400721967,
		"lon": -0.614609001204371
	},
	"distance_km": 6.6,
	"ascent_m": 600,
	"descent_m": 15,
	"circular": true,
	"difficulty_mide": {
		"medio": 2,
		"itinerario": 2,
		"desplazamiento": 3,
		"esfuerzo": 3
	},
	"est_duration_min": 175,
	"water_points": [
		"Fuente (km 0.0, a 80 m del track; OSM, no verificado en campo)",
		"Fuente (km 0.5, a 41 m del track; OSM, no verificado en campo)"
	],
	"water_points_geo": [
		{
			"name": null,
			"kind": "fuente",
			"lat": 38.4355903,
			"lon": -0.6357618,
			"km": 0,
			"dist_m": 80
		},
		{
			"name": null,
			"kind": "fuente",
			"lat": 38.439664,
			"lon": -0.6350165,
			"km": 0.5,
			"dist_m": 41
		}
	],
	"pois": [
		{
			"name": "Cabeçó Ventós",
			"type": "cumbre",
			"lat": 38.4763396,
			"lon": -0.6146318,
			"km": 6.6,
			"dist_m": 3
		}
	],
	"escape_routes": [],
	"highlights": [],
	"best_season": [],
	"best_start_time": null,
	"shade_ratio": 0,
	"gpx": "pr-cv-269.gpx",
	"links": {
		"femecv": "https://senders.femecv.com/es/sendero/ver/pr-cv-269",
		"wikiloc": null
	},
	"alternatives": [
		"pr-cv-189",
		"pr-cv-430",
		"pr-cv-274"
	],
	"notes_rain": null,
	"bbox": [
		-0.637084990739822,
		38.436110001057386,
		-0.614609001204371,
		38.47672099247575
	],
	"sources": [
		"Ficha FEMECV https://senders.femecv.com/es/sendero/ver/pr-cv-269 (crawl 2026-06-11): nombre, estado \"Control de calidad positivo\", distancia, desniveles, horario teórico, MIDE, modalidad, municipio, comarca",
		"OSM Overpass (enrich 2026-06-20): fuentes de agua, sombra estimada y alternativas por proximidad — no verificado en campo",
		"GPX pr-cv-269.gpx (derivados: inicio, bbox)"
	],
	"federacion": "FEMECV",
	"comunidad": "Comunitat Valenciana",
	"capabilities": {
		"estado": true,
		"mide": true,
		"agua": true,
		"etapas": true,
		"descripcion": true,
		"fauna": true,
		"escapes": true
	}
}
