{
	"id": "pr-cv-274",
	"name": "PR-CV 274 LA CREUETA DELS CASTELLANS",
	"type": "PR",
	"status": "con_reservas",
	"status_detail": "Sin controles de calidad",
	"municipality": "Agost",
	"zone": "alacanti",
	"aemet_municipio": null,
	"start": {
		"lat": 38.43973618000746,
		"lon": -0.635819071903825,
		"name": "Parque Concepción Vicedo. Agost"
	},
	"end": {
		"lat": 38.439727043733,
		"lon": -0.635612541809678
	},
	"distance_km": 6.5,
	"ascent_m": 275,
	"descent_m": 275,
	"circular": true,
	"difficulty_mide": {
		"medio": 2,
		"itinerario": 2,
		"desplazamiento": 2,
		"esfuerzo": 2
	},
	"est_duration_min": 130,
	"water_points": [
		"Fuente (km 6.5, a 32 m del track; OSM, no verificado en campo)"
	],
	"water_points_geo": [
		{
			"name": null,
			"kind": "fuente",
			"lat": 38.439664,
			"lon": -0.6350165,
			"km": 6.5,
			"dist_m": 32
		}
	],
	"pois": [
		{
			"name": "la Creueta",
			"type": "cumbre",
			"lat": 38.4335523,
			"lon": -0.6260068,
			"km": 1.9,
			"dist_m": 4
		},
		{
			"name": "la Tarta",
			"type": "cumbre",
			"lat": 38.4434039,
			"lon": -0.6182134,
			"km": 3.4,
			"dist_m": 71
		}
	],
	"escape_routes": [],
	"highlights": [],
	"best_season": [],
	"best_start_time": null,
	"shade_ratio": 0.01,
	"gpx": "pr-cv-274.gpx",
	"links": {
		"femecv": "https://senders.femecv.com/es/sendero/ver/pr-cv-274",
		"wikiloc": null
	},
	"alternatives": [
		"pr-cv-430",
		"pr-cv-189",
		"pr-cv-269"
	],
	"notes_rain": null,
	"bbox": [
		-0.636772848665714,
		38.43327574431896,
		-0.618772879242897,
		38.449148470535874
	],
	"sources": [
		"Ficha FEMECV https://senders.femecv.com/es/sendero/ver/pr-cv-274 (crawl 2026-06-11): nombre, estado \"Sin controles de calidad\", distancia, desniveles, horario teórico, MIDE, modalidad, municipio, comarca",
		"OSM Overpass (enrich 2026-06-20): fuentes de agua, sombra estimada y alternativas por proximidad — no verificado en campo",
		"GPX pr-cv-274.gpx (derivados: inicio, bbox)"
	],
	"federacion": "FEMECV",
	"comunidad": "Comunitat Valenciana",
	"capabilities": {
		"estado": true,
		"mide": true,
		"agua": true,
		"etapas": true,
		"descripcion": true,
		"fauna": true,
		"escapes": true
	}
}
