{
	"id": "pr-cv-326",
	"name": "PR-CV 326 CAMÍ DE LA FOGENTA",
	"type": "PR",
	"status": "con_reservas",
	"status_detail": "Sin controles de calidad",
	"municipality": "Lucena del Cid/Llucena",
	"zone": "alcalaten",
	"aemet_municipio": null,
	"start": {
		"lat": 40.1335209980607,
		"lon": -0.275335041806102,
		"name": "Ermita San Vicente. Lucena"
	},
	"end": {
		"lat": 40.135778998956084,
		"lon": -0.279560023918748
	},
	"distance_km": 21.6,
	"ascent_m": 760,
	"descent_m": 760,
	"circular": true,
	"difficulty_mide": {
		"medio": 1,
		"itinerario": 2,
		"desplazamiento": 2,
		"esfuerzo": 4
	},
	"est_duration_min": 420,
	"water_points": [
		"Fuente (km 0.0, a 3 m del track; OSM, no verificado en campo)",
		"Fuente (km 0.4, a 17 m del track; OSM, no verificado en campo)",
		"Manantial \"Fonteta dels Pixadors\" (km 19.6, a 7 m del track; OSM, no verificado en campo)",
		"Fuente (km 21.2, a 99 m del track; OSM, no verificado en campo)",
		"Fuente (km 21.2, a 81 m del track; OSM, no verificado en campo)",
		"Fuente (km 21.5, a 96 m del track; OSM, no verificado en campo)",
		"Fuente (km 21.6, a 81 m del track; OSM, no verificado en campo)"
	],
	"water_points_geo": [
		{
			"name": null,
			"kind": "fuente",
			"lat": 40.1335489,
			"lon": -0.2753283,
			"km": 0,
			"dist_m": 3
		},
		{
			"name": null,
			"kind": "fuente",
			"lat": 40.1326518,
			"lon": -0.2711558,
			"km": 0.4,
			"dist_m": 17
		},
		{
			"name": "Fonteta dels Pixadors",
			"kind": "manantial",
			"lat": 40.1453142,
			"lon": -0.2785836,
			"km": 19.6,
			"dist_m": 7
		},
		{
			"name": null,
			"kind": "fuente",
			"lat": 40.1379376,
			"lon": -0.2804025,
			"km": 21.2,
			"dist_m": 81
		},
		{
			"name": null,
			"kind": "fuente",
			"lat": 40.1385956,
			"lon": -0.2792766,
			"km": 21.2,
			"dist_m": 99
		},
		{
			"name": null,
			"kind": "fuente",
			"lat": 40.1348518,
			"lon": -0.2809913,
			"km": 21.5,
			"dist_m": 96
		},
		{
			"name": null,
			"kind": "fuente",
			"lat": 40.1358998,
			"lon": -0.2786158,
			"km": 21.6,
			"dist_m": 81
		}
	],
	"pois": [
		{
			"name": "el Portalet",
			"type": "patrimonio",
			"lat": 40.1380639,
			"lon": -0.2801443,
			"km": 21.2,
			"dist_m": 77
		},
		{
			"name": "Mirador de la Terrasseta Polos",
			"type": "mirador",
			"lat": 40.1385779,
			"lon": -0.2792535,
			"km": 21.2,
			"dist_m": 97
		},
		{
			"name": "Mirador Mitja Lluna",
			"type": "mirador",
			"lat": 40.1358334,
			"lon": -0.278279,
			"km": 21.6,
			"dist_m": 109
		}
	],
	"escape_routes": [],
	"highlights": [],
	"best_season": [],
	"best_start_time": null,
	"shade_ratio": 0.09,
	"gpx": "pr-cv-326.gpx",
	"links": {
		"femecv": "https://senders.femecv.com/es/sendero/ver/pr-cv-326",
		"wikiloc": null
	},
	"alternatives": [
		"pr-cv-341",
		"pr-cv-328",
		"sl-cv-90"
	],
	"notes_rain": null,
	"bbox": [
		-0.285523999482393,
		40.13169097714126,
		-0.242605973035097,
		40.18179497681558
	],
	"sources": [
		"Ficha FEMECV https://senders.femecv.com/es/sendero/ver/pr-cv-326 (crawl 2026-06-11): nombre, estado \"Sin controles de calidad\", distancia, desniveles, horario teórico, MIDE, modalidad, municipio, comarca",
		"OSM Overpass (enrich 2026-06-20): fuentes de agua, sombra estimada y alternativas por proximidad — no verificado en campo",
		"GPX pr-cv-326.gpx (derivados: inicio, bbox)"
	],
	"federacion": "FEMECV",
	"comunidad": "Comunitat Valenciana",
	"capabilities": {
		"estado": true,
		"mide": true,
		"agua": true,
		"etapas": true,
		"descripcion": true,
		"fauna": true,
		"escapes": true
	}
}
