{
	"id": "pr-cv-121",
	"name": "PR-CV 121 SENDA DELS ENGINYERS",
	"type": "PR",
	"status": "con_reservas",
	"status_detail": "Sin controles de calidad",
	"municipality": "Ontinyent",
	"zone": "vall-d-albaida",
	"aemet_municipio": null,
	"start": {
		"lat": 38.802668983116746,
		"lon": -0.6027249712497,
		"name": "Cementerio Municipal de Ontinyent"
	},
	"end": {
		"lat": 38.8065239880234,
		"lon": -0.499652959406376
	},
	"distance_km": 16.3,
	"ascent_m": 835,
	"descent_m": 435,
	"circular": false,
	"difficulty_mide": {
		"medio": 1,
		"itinerario": 2,
		"desplazamiento": 2,
		"esfuerzo": 3
	},
	"est_duration_min": 330,
	"water_points": [
		"Manantial (km 7.0, a 14 m del track; OSM, no verificado en campo)",
		"Fuente \"Fonteta del Patge\" (km 11.1, a 6 m del track; OSM, no verificado en campo)",
		"Fuente \"Font de la Covalta\" (km 16.0, a 12 m del track; OSM, no verificado en campo)"
	],
	"water_points_geo": [
		{
			"name": null,
			"kind": "manantial",
			"lat": 38.8149114,
			"lon": -0.5598318,
			"km": 7,
			"dist_m": 14
		},
		{
			"name": "Fonteta del Patge",
			"kind": "fuente",
			"lat": 38.8141146,
			"lon": -0.5277706,
			"km": 11.1,
			"dist_m": 6
		},
		{
			"name": "Font de la Covalta",
			"kind": "fuente",
			"lat": 38.8064358,
			"lon": -0.4995645,
			"km": 16,
			"dist_m": 12
		}
	],
	"pois": [
		{
			"name": "Alto de la Covalta",
			"type": "cumbre",
			"lat": 38.8058723,
			"lon": -0.4988844,
			"km": 16,
			"dist_m": 95
		}
	],
	"escape_routes": [],
	"highlights": [],
	"best_season": [],
	"best_start_time": null,
	"shade_ratio": 0.11,
	"gpx": "pr-cv-121.gpx",
	"links": {
		"femecv": "https://senders.femecv.com/es/sendero/ver/pr-cv-121",
		"wikiloc": null
	},
	"alternatives": [
		"pr-cv-122",
		"gr-7-e46",
		"pr-cv-135"
	],
	"notes_rain": null,
	"bbox": [
		-0.6027249712497,
		38.802668983116746,
		-0.499410973861814,
		38.8179350271821
	],
	"sources": [
		"Ficha FEMECV https://senders.femecv.com/es/sendero/ver/pr-cv-121 (crawl 2026-06-11): nombre, estado \"Sin controles de calidad\", distancia, desniveles, horario teórico, MIDE, modalidad, municipio, comarca",
		"OSM Overpass (enrich 2026-06-20): fuentes de agua, sombra estimada y alternativas por proximidad — no verificado en campo",
		"GPX pr-cv-121.gpx (derivados: inicio, bbox)"
	]
}
