{
	"id": "pr-cv-201",
	"name": "PR-CV 201 RUTA DEL MOLÍ VELL",
	"type": "PR",
	"status": "con_reservas",
	"status_detail": "Control de calidad condicionado",
	"municipality": "Sant Mateu",
	"zone": "baix-maestrat",
	"aemet_municipio": null,
	"start": {
		"lat": 40.46692502684891,
		"lon": 0.18281701952219,
		"name": "Plaça de la Pietat. Sant Mateu"
	},
	"end": {
		"lat": 40.466908011585474,
		"lon": 0.182833028957248
	},
	"distance_km": 11.1,
	"ascent_m": 230,
	"descent_m": 230,
	"circular": true,
	"difficulty_mide": {
		"medio": 1,
		"itinerario": 2,
		"desplazamiento": 2,
		"esfuerzo": 2
	},
	"est_duration_min": 160,
	"water_points": [
		"Manantial \"Font de les Piques\" (km 2.2, a 8 m del track; OSM, no verificado en campo)",
		"Manantial \"Font Coberta\" (km 8.8, a 43 m del track; OSM, no verificado en campo)"
	],
	"water_points_geo": [
		{
			"name": "Font de les Piques",
			"kind": "manantial",
			"lat": 40.4800515,
			"lon": 0.1994028,
			"km": 2.2,
			"dist_m": 8
		},
		{
			"name": "Font Coberta",
			"kind": "manantial",
			"lat": 40.4694731,
			"lon": 0.2030889,
			"km": 8.8,
			"dist_m": 43
		}
	],
	"pois": [
		{
			"name": "Muntanyeta de Sant Joan",
			"type": "cumbre",
			"lat": 40.4691682,
			"lon": 0.1852173,
			"km": 0.3,
			"dist_m": 22
		}
	],
	"escape_routes": [],
	"highlights": [],
	"best_season": [],
	"best_start_time": null,
	"shade_ratio": 0,
	"gpx": "pr-cv-201.gpx",
	"links": {
		"femecv": "https://senders.femecv.com/es/sendero/ver/pr-cv-201",
		"wikiloc": null
	},
	"alternatives": [
		"sl-cv-58",
		"pr-cv-296",
		"pr-cv-295"
	],
	"notes_rain": null,
	"bbox": [
		0.18281701952219,
		40.459195990115404,
		0.222800960764289,
		40.480211013928056
	],
	"sources": [
		"Ficha FEMECV https://senders.femecv.com/es/sendero/ver/pr-cv-201 (crawl 2026-06-11): nombre, estado \"Control de calidad condicionado\", distancia, desniveles, horario teórico, MIDE, modalidad, municipio, comarca",
		"OSM Overpass (enrich 2026-06-20): fuentes de agua, sombra estimada y alternativas por proximidad — no verificado en campo",
		"GPX pr-cv-201.gpx (derivados: inicio, bbox)"
	],
	"federacion": "FEMECV",
	"comunidad": "Comunitat Valenciana",
	"capabilities": {
		"estado": true,
		"mide": true,
		"agua": true,
		"etapas": true,
		"descripcion": true,
		"fauna": true,
		"escapes": true
	}
}
