{
	"id": "pr-cv-380",
	"name": "PR-CV 380 RIO CABRIEL",
	"type": "PR",
	"status": "homologado",
	"status_detail": "Control de calidad positivo",
	"municipality": "Cofrentes",
	"zone": "valle-de-ayora",
	"aemet_municipio": null,
	"start": {
		"lat": 39.23051099292934,
		"lon": -1.062573026865721,
		"name": "Plaza de España. Cofrentes"
	},
	"end": {
		"lat": 39.23053597100079,
		"lon": -1.062616026028991
	},
	"distance_km": 10.6,
	"ascent_m": 115,
	"descent_m": 115,
	"circular": true,
	"difficulty_mide": {
		"medio": 2,
		"itinerario": 2,
		"desplazamiento": 1,
		"esfuerzo": 2
	},
	"est_duration_min": 140,
	"water_points": [
		"Manantial \"Fuente de Santa Ana\" (km 0.4, a 11 m del track; OSM, no verificado en campo)",
		"Fuente (km 9.3, a 5 m del track; OSM, no verificado en campo)",
		"Fuente (km 10.3, a 7 m del track; OSM, no verificado en campo)"
	],
	"water_points_geo": [
		{
			"name": "Fuente de Santa Ana",
			"kind": "manantial",
			"lat": 39.2317661,
			"lon": -1.059661,
			"km": 0.4,
			"dist_m": 11
		},
		{
			"name": null,
			"kind": "fuente",
			"lat": 39.2304547,
			"lon": -1.074713,
			"km": 9.3,
			"dist_m": 5
		},
		{
			"name": null,
			"kind": "fuente",
			"lat": 39.2281752,
			"lon": -1.0639346,
			"km": 10.3,
			"dist_m": 7
		}
	],
	"pois": [
		{
			"name": "Mirador de la Era del Chulo",
			"type": "mirador",
			"lat": 39.2327321,
			"lon": -1.059929,
			"km": 0.5,
			"dist_m": 6
		},
		{
			"name": "Los Pilaricos",
			"type": "cumbre",
			"lat": 39.2417049,
			"lon": -1.0874394,
			"km": 7.6,
			"dist_m": 126
		},
		{
			"name": "Balcón del Cabriel",
			"type": "mirador",
			"lat": 39.228642,
			"lon": -1.0654859,
			"km": 10.1,
			"dist_m": 49
		}
	],
	"escape_routes": [],
	"highlights": [],
	"best_season": [],
	"best_start_time": null,
	"shade_ratio": 0.23,
	"gpx": "pr-cv-380.gpx",
	"links": {
		"femecv": "https://senders.femecv.com/es/sendero/ver/pr-cv-380",
		"wikiloc": null
	},
	"alternatives": [
		"pr-cv-379",
		"pr-cv-382",
		"pr-cv-381"
	],
	"notes_rain": null,
	"bbox": [
		-1.097340993583202,
		39.22821200452745,
		-1.058523980900645,
		39.24954696558416
	],
	"sources": [
		"Ficha FEMECV https://senders.femecv.com/es/sendero/ver/pr-cv-380 (crawl 2026-06-11): nombre, estado \"Control de calidad positivo\", distancia, desniveles, horario teórico, MIDE, modalidad, municipio, comarca",
		"OSM Overpass (enrich 2026-06-20): fuentes de agua, sombra estimada y alternativas por proximidad — no verificado en campo",
		"GPX pr-cv-380.gpx (derivados: inicio, bbox)"
	]
}
