{
	"id": "sl-cv-103",
	"name": "SL-CV 103 SENDERO PINAR",
	"type": "SL",
	"status": "con_reservas",
	"status_detail": "Sin controles de calidad",
	"municipality": "Torralba del Pinar",
	"zone": "alto-mijares",
	"aemet_municipio": null,
	"start": {
		"lat": 39.98816194944084,
		"lon": -0.438722809776664,
		"name": "Plaza de la Iglesia"
	},
	"distance_km": 7.2,
	"ascent_m": 460,
	"descent_m": 460,
	"circular": true,
	"difficulty_mide": {
		"medio": 1,
		"itinerario": 2,
		"desplazamiento": 2,
		"esfuerzo": 2
	},
	"est_duration_min": 170,
	"water_points": [
		"Manantial \"Fuente del Cerezo\" (km 0.4, a 5 m del track; OSM, no verificado en campo)",
		"Manantial \"Fuente de las Montalbanas\" (km 1.2, a 16 m del track; OSM, no verificado en campo)",
		"Fuente (km 7.2, a 27 m del track; OSM, no verificado en campo)",
		"Fuente (km 7.2, a 21 m del track; OSM, no verificado en campo)",
		"Manantial \"Fuente Vieja\" (km 7.2, a 97 m del track; OSM, no verificado en campo)"
	],
	"water_points_geo": [
		{
			"name": "Fuente del Cerezo",
			"kind": "manantial",
			"lat": 39.9856208,
			"lon": -0.4372148,
			"km": 0.4,
			"dist_m": 5
		},
		{
			"name": "Fuente de las Montalbanas",
			"kind": "manantial",
			"lat": 39.9796941,
			"lon": -0.4389388,
			"km": 1.2,
			"dist_m": 16
		},
		{
			"name": null,
			"kind": "fuente",
			"lat": 39.9886146,
			"lon": -0.4386295,
			"km": 7.2,
			"dist_m": 27
		},
		{
			"name": null,
			"kind": "fuente",
			"lat": 39.9887595,
			"lon": -0.4380679,
			"km": 7.2,
			"dist_m": 21
		},
		{
			"name": "Fuente Vieja",
			"kind": "manantial",
			"lat": 39.9889527,
			"lon": -0.4372001,
			"km": 7.2,
			"dist_m": 97
		}
	],
	"pois": [
		{
			"name": "El Pinar",
			"type": "cumbre",
			"lat": 39.9814365,
			"lon": -0.4508329,
			"km": 3.5,
			"dist_m": 79
		}
	],
	"escape_routes": [],
	"highlights": [],
	"best_season": [],
	"best_start_time": null,
	"shade_ratio": null,
	"gpx": "sl-cv-103.gpx",
	"links": {
		"femecv": "https://senders.femecv.com/es/sendero/ver/sl-cv-103",
		"wikiloc": null
	},
	"alternatives": [
		"gr-333-e06",
		"gr-333-e07",
		"gr-36-e05"
	],
	"notes_rain": null,
	"bbox": [
		-0.461187232285738,
		39.97586435638368,
		-0.436272025108337,
		39.98863259330392
	],
	"sources": [
		"Ficha FEMECV https://senders.femecv.com/es/sendero/ver/sl-cv-103 (crawl 2026-06-11): nombre, estado \"Sin controles de calidad\", distancia, desniveles, horario teórico, MIDE, modalidad, municipio, comarca",
		"OSM Overpass (enrich 2026-06-20): fuentes de agua, sombra estimada y alternativas por proximidad — no verificado en campo",
		"GPX sl-cv-103.gpx (derivados: inicio, bbox)"
	]
}
