{
	"id": "sl-cv-74",
	"name": "SL-CV 74 EL CHARCO AZUL",
	"type": "SL",
	"status": "con_reservas",
	"status_detail": "Control de calidad condicionado",
	"municipality": "Chulilla",
	"zone": "serranos",
	"aemet_municipio": null,
	"start": {
		"lat": 39.65631,
		"lon": -0.89191,
		"name": "Plaza de la Baronía"
	},
	"end": {
		"lat": 39.65631,
		"lon": -0.891934
	},
	"distance_km": 3.7,
	"ascent_m": 85,
	"descent_m": 85,
	"circular": true,
	"difficulty_mide": {
		"medio": 2,
		"itinerario": 2,
		"desplazamiento": 2,
		"esfuerzo": 2
	},
	"est_duration_min": 65,
	"water_points": [
		"Fuente (km 0.6, a 70 m del track; OSM, no verificado en campo)",
		"Fuente (km 3.6, a 52 m del track; OSM, no verificado en campo)"
	],
	"water_points_geo": [
		{
			"name": null,
			"kind": "fuente",
			"lat": 39.6601749,
			"lon": -0.8919949,
			"km": 0.6,
			"dist_m": 70
		},
		{
			"name": null,
			"kind": "fuente",
			"lat": 39.6564847,
			"lon": -0.8928273,
			"km": 3.6,
			"dist_m": 52
		}
	],
	"pois": [
		{
			"name": "Mirador Hoces del Turía",
			"type": "mirador",
			"lat": 39.6639759,
			"lon": -0.8918144,
			"km": 1.1,
			"dist_m": 33
		},
		{
			"name": "Mirador del Charco Azul",
			"type": "mirador",
			"lat": 39.6651746,
			"lon": -0.8917847,
			"km": 1.2,
			"dist_m": 84
		},
		{
			"name": "Castillo de Chulilla",
			"type": "patrimonio",
			"lat": 39.6554797,
			"lon": -0.8940644,
			"km": 3.5,
			"dist_m": 98
		}
	],
	"escape_routes": [],
	"highlights": [],
	"best_season": [],
	"best_start_time": null,
	"shade_ratio": 0.25,
	"gpx": "sl-cv-74.gpx",
	"links": {
		"femecv": "https://senders.femecv.com/es/sendero/ver/sl-cv-74",
		"wikiloc": null
	},
	"alternatives": [
		"sl-cv-72",
		"sl-cv-71",
		"pr-cv-77"
	],
	"notes_rain": null,
	"bbox": [
		-0.897697,
		39.653466,
		-0.891431,
		39.664473
	],
	"sources": [
		"Ficha FEMECV https://senders.femecv.com/es/sendero/ver/sl-cv-74 (crawl 2026-06-11): nombre, estado \"Control de calidad condicionado\", distancia, desniveles, horario teórico, MIDE, modalidad, municipio, comarca",
		"OSM Overpass (enrich 2026-06-20): fuentes de agua, sombra estimada y alternativas por proximidad — no verificado en campo",
		"GPX sl-cv-74.gpx (derivados: inicio, bbox)"
	]
}
