{
	"id": "sl-cv-105",
	"name": "SL-CV 105 SENDA DE LA BOJERA",
	"type": "SL",
	"status": "con_reservas",
	"status_detail": "Sin controles de calidad",
	"municipality": "Montanejos",
	"zone": "alto-mijares",
	"aemet_municipio": null,
	"start": {
		"lat": 40.06575155071914,
		"lon": -0.527748763561249,
		"name": "Pista depósito de agua. Montanejos"
	},
	"end": {
		"lat": 40.07296996191144,
		"lon": -0.528733972460032
	},
	"distance_km": 8.6,
	"ascent_m": 445,
	"descent_m": 470,
	"circular": false,
	"difficulty_mide": {
		"medio": 2,
		"itinerario": 2,
		"desplazamiento": 2,
		"esfuerzo": 3
	},
	"est_duration_min": 185,
	"water_points": [
		"Fuente (km 0.0, a 60 m del track; OSM, no verificado en campo)",
		"Fuente (km 0.1, a 46 m del track; OSM, no verificado en campo)"
	],
	"water_points_geo": [
		{
			"name": null,
			"kind": "fuente",
			"lat": 40.0652447,
			"lon": -0.5275055,
			"km": 0,
			"dist_m": 60
		},
		{
			"name": null,
			"kind": "fuente",
			"lat": 40.0658013,
			"lon": -0.5269059,
			"km": 0.1,
			"dist_m": 46
		}
	],
	"pois": [
		{
			"name": "Buzón",
			"type": "patrimonio",
			"lat": 40.0650981,
			"lon": -0.5457109,
			"km": 3.3,
			"dist_m": 5
		}
	],
	"escape_routes": [],
	"highlights": [],
	"best_season": [],
	"best_start_time": null,
	"shade_ratio": 0.87,
	"gpx": "sl-cv-105.gpx",
	"links": {
		"femecv": "https://senders.femecv.com/es/sendero/ver/sl-cv-105",
		"wikiloc": null
	},
	"alternatives": [
		"sl-cv-104",
		"gr-160-e03",
		"gr-7-e33"
	],
	"notes_rain": null,
	"bbox": [
		-0.557348029688001,
		40.06419695913792,
		-0.525772981345654,
		40.07376096211374
	],
	"sources": [
		"Ficha FEMECV https://senders.femecv.com/es/sendero/ver/sl-cv-105 (crawl 2026-06-11): nombre, estado \"Sin controles de calidad\", distancia, desniveles, horario teórico, MIDE, modalidad, municipio, comarca",
		"OSM Overpass (enrich 2026-06-20): fuentes de agua, sombra estimada y alternativas por proximidad — no verificado en campo",
		"GPX sl-cv-105.gpx (derivados: inicio, bbox)"
	],
	"federacion": "FEMECV",
	"comunidad": "Comunitat Valenciana",
	"capabilities": {
		"estado": true,
		"mide": true,
		"agua": true,
		"etapas": true,
		"descripcion": true,
		"fauna": true,
		"escapes": true
	}
}
