{
	"id": "sl-cv-136",
	"name": "SL-CV 136 MOLINO DEL QUISI",
	"type": "SL",
	"status": "con_reservas",
	"status_detail": "Sin controles de calidad",
	"municipality": "Benissa",
	"zone": "marina-alta",
	"aemet_municipio": null,
	"start": {
		"lat": 38.71542703360319,
		"lon": 0.050157979130745,
		"name": "Plaça Rei Jaume I, 1"
	},
	"distance_km": 8.7,
	"ascent_m": 290,
	"descent_m": 290,
	"circular": true,
	"difficulty_mide": {
		"medio": 2,
		"itinerario": 2,
		"desplazamiento": 2,
		"esfuerzo": 2
	},
	"est_duration_min": 140,
	"water_points": [
		"Manantial \"Pou d'Avall\" (km 0.9, a 5 m del track; OSM, no verificado en campo)",
		"Manantial \"Font de Santa Anna\" (km 1.7, a 59 m del track; OSM, no verificado en campo)",
		"Fuente (km 8.7, a 42 m del track; OSM, no verificado en campo)"
	],
	"water_points_geo": [
		{
			"name": "Pou d'Avall",
			"kind": "manantial",
			"lat": 38.7149118,
			"lon": 0.0549136,
			"km": 0.9,
			"dist_m": 5
		},
		{
			"name": "Font de Santa Anna",
			"kind": "manantial",
			"lat": 38.7089532,
			"lon": 0.056169,
			"km": 1.7,
			"dist_m": 59
		},
		{
			"name": null,
			"kind": "fuente",
			"lat": 38.7152927,
			"lon": 0.0511686,
			"km": 8.7,
			"dist_m": 42
		}
	],
	"pois": [
		{
			"name": "Monument al Riberer",
			"type": "patrimonio",
			"lat": 38.7159859,
			"lon": 0.0513719,
			"km": 0.1,
			"dist_m": 3
		},
		{
			"name": "Ruïnes Antiga Església de Benissa",
			"type": "patrimonio",
			"lat": 38.7161377,
			"lon": 0.0528587,
			"km": 0.3,
			"dist_m": 19
		}
	],
	"escape_routes": [],
	"highlights": [],
	"best_season": [],
	"best_start_time": null,
	"shade_ratio": 0.06,
	"gpx": "sl-cv-136.gpx",
	"links": {
		"femecv": "https://senders.femecv.com/es/sendero/ver/sl-cv-136",
		"wikiloc": null
	},
	"alternatives": [
		"pr-cv-388",
		"sl-cv-73",
		"pr-cv-53-5"
	],
	"notes_rain": null,
	"bbox": [
		0.048675974830985,
		38.68751001544297,
		0.060239983722568,
		38.716549035161734
	],
	"sources": [
		"Ficha FEMECV https://senders.femecv.com/es/sendero/ver/sl-cv-136 (crawl 2026-06-11): nombre, estado \"Sin controles de calidad\", distancia, desniveles, horario teórico, MIDE, modalidad, municipio, comarca",
		"OSM Overpass (enrich 2026-06-20): fuentes de agua, sombra estimada y alternativas por proximidad — no verificado en campo",
		"GPX sl-cv-136.gpx (derivados: inicio, bbox)"
	]
}
