{
	"id": "sl-cv-71",
	"name": "SL-CV 71 SENDERO FUENTE LEBRILLICO - LA MUELA",
	"type": "SL",
	"status": "con_reservas",
	"status_detail": "Sin controles de calidad",
	"municipality": "Chulilla",
	"zone": "serranos",
	"aemet_municipio": null,
	"start": {
		"lat": 39.656423991546035,
		"lon": -0.891996016725898,
		"name": "Plaza de la Baronía"
	},
	"end": {
		"lat": 39.65641401708126,
		"lon": -0.891989981755614
	},
	"distance_km": 3.3,
	"ascent_m": 210,
	"descent_m": 210,
	"circular": true,
	"difficulty_mide": {
		"medio": 1,
		"itinerario": 2,
		"desplazamiento": 2,
		"esfuerzo": 2
	},
	"est_duration_min": 80,
	"water_points": [
		"Fuente (km 0.0, a 71 m del track; OSM, no verificado en campo)",
		"Manantial \"Fuente del Lebrillico\" (km 0.4, a 1 m del track; OSM, no verificado en campo)"
	],
	"water_points_geo": [
		{
			"name": null,
			"kind": "fuente",
			"lat": 39.6564847,
			"lon": -0.8928273,
			"km": 0,
			"dist_m": 71
		},
		{
			"name": "Fuente del Lebrillico",
			"kind": "manantial",
			"lat": 39.6589284,
			"lon": -0.8893406,
			"km": 0.4,
			"dist_m": 1
		}
	],
	"pois": [
		{
			"name": "Mirador de la Cruz",
			"type": "mirador",
			"lat": 39.6560303,
			"lon": -0.8890944,
			"km": 1.5,
			"dist_m": 0
		}
	],
	"escape_routes": [],
	"highlights": [],
	"best_season": [],
	"best_start_time": null,
	"shade_ratio": 0.33,
	"gpx": "sl-cv-71.gpx",
	"links": {
		"femecv": "https://senders.femecv.com/es/sendero/ver/sl-cv-71",
		"wikiloc": null
	},
	"alternatives": [
		"sl-cv-72",
		"sl-cv-74",
		"pr-cv-77"
	],
	"notes_rain": null,
	"bbox": [
		-0.891996016725898,
		39.653374990448356,
		-0.884934011846781,
		39.660934964194894
	],
	"sources": [
		"Ficha FEMECV https://senders.femecv.com/es/sendero/ver/sl-cv-71 (crawl 2026-06-11): nombre, estado \"Sin controles de calidad\", distancia, desniveles, horario teórico, MIDE, modalidad, municipio, comarca",
		"OSM Overpass (enrich 2026-06-20): fuentes de agua, sombra estimada y alternativas por proximidad — no verificado en campo",
		"GPX sl-cv-71.gpx (derivados: inicio, bbox)"
	],
	"federacion": "FEMECV",
	"comunidad": "Comunitat Valenciana",
	"capabilities": {
		"estado": true,
		"mide": true,
		"agua": true,
		"etapas": true,
		"descripcion": true,
		"fauna": true,
		"escapes": true
	}
}
