{
	"id": "sl-cv-29",
	"name": "SL-CV 29 EL ENCANTO DEL CALAR",
	"type": "SL",
	"status": "con_reservas",
	"status_detail": "Control de calidad condicionado",
	"municipality": "Ain",
	"zone": "plana-baixa",
	"aemet_municipio": null,
	"start": {
		"lat": 39.901271034032106,
		"lon": -0.342198992148042,
		"name": "Plaza José Sorribes. Aín"
	},
	"end": {
		"lat": 39.90123599767685,
		"lon": -0.342197986319661
	},
	"distance_km": 4.7,
	"ascent_m": 215,
	"descent_m": 215,
	"circular": true,
	"difficulty_mide": {
		"medio": 3,
		"itinerario": 2,
		"desplazamiento": 2,
		"esfuerzo": 2
	},
	"est_duration_min": 100,
	"water_points": [
		"Fuente (km 0.0, a 2 m del track; OSM, no verificado en campo)",
		"Fuente \"Fuente de los Dos Caños\" (km 0.2, a 38 m del track; OSM, no verificado en campo)",
		"Manantial \"Font de la Basseta\" (km 1.1, a 3 m del track; OSM, no verificado en campo)"
	],
	"water_points_geo": [
		{
			"name": null,
			"kind": "fuente",
			"lat": 39.901244,
			"lon": -0.3420523,
			"km": 0,
			"dist_m": 2
		},
		{
			"name": "Fuente de los Dos Caños",
			"kind": "fuente",
			"lat": 39.900437,
			"lon": -0.3403491,
			"km": 0.2,
			"dist_m": 38
		},
		{
			"name": "Font de la Basseta",
			"kind": "manantial",
			"lat": 39.9037088,
			"lon": -0.3333692,
			"km": 1.1,
			"dist_m": 3
		}
	],
	"pois": [
		{
			"name": "Mirador de la Batalla",
			"type": "mirador",
			"lat": 39.9023622,
			"lon": -0.3341308,
			"km": 0.9,
			"dist_m": 13
		},
		{
			"name": "forn de calç",
			"type": "patrimonio",
			"lat": 39.9036409,
			"lon": -0.3333986,
			"km": 1.1,
			"dist_m": 1
		},
		{
			"name": "En memoria dels combatents de la 195 brigada",
			"type": "patrimonio",
			"lat": 39.9070979,
			"lon": -0.339971,
			"km": 2.8,
			"dist_m": 16
		},
		{
			"name": "Penya de la Campana",
			"type": "cumbre",
			"lat": 39.9071233,
			"lon": -0.3403831,
			"km": 2.9,
			"dist_m": 34
		}
	],
	"escape_routes": [],
	"highlights": [],
	"best_season": [],
	"best_start_time": null,
	"shade_ratio": 0.09,
	"gpx": "sl-cv-29.gpx",
	"links": {
		"femecv": "https://senders.femecv.com/es/sendero/ver/sl-cv-29",
		"wikiloc": null
	},
	"alternatives": [
		"gr-333-e03",
		"pr-cv-140",
		"gr-36-e03"
	],
	"notes_rain": null,
	"bbox": [
		-0.347540024667978,
		39.90076401270926,
		-0.32921701669693,
		39.90916703827679
	],
	"sources": [
		"Ficha FEMECV https://senders.femecv.com/es/sendero/ver/sl-cv-29 (crawl 2026-06-11): nombre, estado \"Control de calidad condicionado\", distancia, desniveles, horario teórico, MIDE, modalidad, municipio, comarca",
		"OSM Overpass (enrich 2026-06-20): fuentes de agua, sombra estimada y alternativas por proximidad — no verificado en campo",
		"GPX sl-cv-29.gpx (derivados: inicio, bbox)"
	],
	"federacion": "FEMECV",
	"comunidad": "Comunitat Valenciana",
	"capabilities": {
		"estado": true,
		"mide": true,
		"agua": true,
		"etapas": true,
		"descripcion": true,
		"fauna": true,
		"escapes": true
	}
}
