{
	"id": "sl-cv-186",
	"name": "SL-CV 186 POBLADO ÍBERO DE LA ROCHINA",
	"type": "SL",
	"status": "homologado",
	"status_detail": "En vigor",
	"municipality": "Sot de Ferrer",
	"zone": "alto-palancia",
	"aemet_municipio": null,
	"start": {
		"lat": 39.80409703217447,
		"lon": -0.410578977316618,
		"name": "Aparcamiento municipal. Sot de Ferrer"
	},
	"end": {
		"lat": 39.792814990505576,
		"lon": -0.394748998805881
	},
	"distance_km": 3.5,
	"ascent_m": 130,
	"descent_m": 80,
	"circular": false,
	"difficulty_mide": {
		"medio": 2,
		"itinerario": 2,
		"desplazamiento": 2,
		"esfuerzo": 2
	},
	"est_duration_min": 65,
	"water_points": [
		"Fuente (km 0.3, a 1 m del track; OSM, no verificado en campo)"
	],
	"water_points_geo": [
		{
			"name": null,
			"kind": "fuente",
			"lat": 39.8016415,
			"lon": -0.4121187,
			"km": 0.3,
			"dist_m": 1
		}
	],
	"pois": [
		{
			"name": "Alto de la Fuente",
			"type": "patrimonio",
			"lat": 39.8012963,
			"lon": -0.4113376,
			"km": 0.4,
			"dist_m": 66
		},
		{
			"name": "Monte de la Rochina",
			"type": "cumbre",
			"lat": 39.7938747,
			"lon": -0.3924357,
			"km": 3.3,
			"dist_m": 120
		},
		{
			"name": "Alto de los Moros",
			"type": "cumbre",
			"lat": 39.7928546,
			"lon": -0.3950256,
			"km": 3.5,
			"dist_m": 24
		},
		{
			"name": "Pueblo Ibero de la Rochina",
			"type": "patrimonio",
			"lat": 39.7929493,
			"lon": -0.3951854,
			"km": 3.5,
			"dist_m": 40
		}
	],
	"escape_routes": [],
	"highlights": [],
	"best_season": [],
	"best_start_time": null,
	"shade_ratio": null,
	"gpx": "sl-cv-186.gpx",
	"links": {
		"femecv": "https://senders.femecv.com/es/sendero/ver/sl-cv-186",
		"wikiloc": null
	},
	"alternatives": [
		"sl-cv-116",
		"pr-cv-320",
		"pr-cv-461"
	],
	"notes_rain": null,
	"bbox": [
		-0.412114039063454,
		39.790450036525726,
		-0.392523016780615,
		39.8040989600122
	],
	"sources": [
		"Ficha FEMECV https://senders.femecv.com/es/sendero/ver/sl-cv-186 (crawl 2026-06-11): nombre, estado \"En vigor\", distancia, desniveles, horario teórico, MIDE, modalidad, municipio, comarca",
		"OSM Overpass (enrich 2026-06-20): fuentes de agua, sombra estimada y alternativas por proximidad — no verificado en campo",
		"GPX sl-cv-186.gpx (derivados: inicio, bbox)"
	],
	"federacion": "FEMECV",
	"comunidad": "Comunitat Valenciana",
	"capabilities": {
		"estado": true,
		"mide": true,
		"agua": true,
		"etapas": true,
		"descripcion": true,
		"fauna": true,
		"escapes": true
	}
}
