{
	"id": "sl-cv-18-2",
	"name": "SL-CV 18.2 LA POBLA DEL BELLESTAR - VILAFRANCA",
	"type": "SL",
	"status": "con_reservas",
	"status_detail": "Sin controles de calidad",
	"municipality": "Villafranca del Cid/Vilafranca",
	"zone": "ports",
	"aemet_municipio": null,
	"start": {
		"lat": 40.42494501918554,
		"lon": -0.255386028438807,
		"name": "Avinguda Llosar, 24 Vilafranca"
	},
	"end": {
		"lat": 40.463453996926546,
		"lon": -0.309564974159002
	},
	"distance_km": 9.3,
	"ascent_m": 370,
	"descent_m": 360,
	"circular": false,
	"difficulty_mide": {
		"medio": 1,
		"itinerario": 2,
		"desplazamiento": 2,
		"esfuerzo": 3
	},
	"est_duration_min": 185,
	"water_points": [
		"Fuente (km 0.1, a 9 m del track; OSM, no verificado en campo)",
		"Fuente (km 0.1, a 9 m del track; OSM, no verificado en campo)",
		"Fuente \"Font Nova\" (km 0.5, a 7 m del track; OSM, no verificado en campo)",
		"Manantial \"Font de Sant Miquel\" (km 9.4, a 9 m del track; OSM, no verificado en campo)"
	],
	"water_points_geo": [
		{
			"name": null,
			"kind": "fuente",
			"lat": 40.4249059,
			"lon": -0.255779,
			"km": 0.1,
			"dist_m": 9
		},
		{
			"name": null,
			"kind": "fuente",
			"lat": 40.424905,
			"lon": -0.2557753,
			"km": 0.1,
			"dist_m": 9
		},
		{
			"name": "Font Nova",
			"kind": "fuente",
			"lat": 40.4250615,
			"lon": -0.2598246,
			"km": 0.5,
			"dist_m": 7
		},
		{
			"name": "Font de Sant Miquel",
			"kind": "manantial",
			"lat": 40.4633804,
			"lon": -0.3096076,
			"km": 9.4,
			"dist_m": 9
		}
	],
	"pois": [
		{
			"name": "Portal de Sant Roc",
			"type": "patrimonio",
			"lat": 40.4237712,
			"lon": -0.2542424,
			"km": 0,
			"dist_m": 149
		},
		{
			"name": "Peiró de la Trinitat",
			"type": "patrimonio",
			"lat": 40.4248442,
			"lon": -0.2654278,
			"km": 1.2,
			"dist_m": 5
		},
		{
			"name": "Canto de Peroto",
			"type": "cumbre",
			"lat": 40.4453059,
			"lon": -0.3044835,
			"km": 6.7,
			"dist_m": 37
		}
	],
	"escape_routes": [],
	"highlights": [],
	"best_season": [],
	"best_start_time": null,
	"shade_ratio": 0.46,
	"gpx": "sl-cv-18-2.gpx",
	"links": {
		"femecv": "https://senders.femecv.com/es/sendero/ver/sl-cv-18-2",
		"wikiloc": null
	},
	"alternatives": [
		"sl-cv-18-4",
		"sl-cv-18-3",
		"gr-331-e01"
	],
	"notes_rain": null,
	"bbox": [
		-0.309564974159002,
		40.424282010644674,
		-0.255276979878545,
		40.463453996926546
	],
	"sources": [
		"Ficha FEMECV https://senders.femecv.com/es/sendero/ver/sl-cv-18-2 (crawl 2026-06-11): nombre, estado \"Sin controles de calidad\", distancia, desniveles, horario teórico, MIDE, modalidad, municipio, comarca",
		"OSM Overpass (enrich 2026-06-20): fuentes de agua, sombra estimada y alternativas por proximidad — no verificado en campo",
		"GPX sl-cv-18-2.gpx (derivados: inicio, bbox)"
	]
}
