{
	"id": "sl-cv-45",
	"name": "SL-CV 45 CAMÍ DELS MOLINS",
	"type": "SL",
	"status": "con_reservas",
	"status_detail": "Sin controles de calidad",
	"municipality": "Ares del Maestrat",
	"zone": "alt-maestrat",
	"aemet_municipio": null,
	"start": {
		"lat": 40.45665996149182,
		"lon": -0.131850019097328,
		"name": "Plaça Major"
	},
	"end": {
		"lat": 40.45665602199733,
		"lon": -0.131868962198496
	},
	"distance_km": 5.7,
	"ascent_m": 315,
	"descent_m": 315,
	"circular": true,
	"difficulty_mide": {
		"medio": 2,
		"itinerario": 2,
		"desplazamiento": 2,
		"esfuerzo": 2
	},
	"est_duration_min": 125,
	"water_points": [
		"Fuente \"Font de la Vila\" (km 0.0, a 30 m del track; OSM, no verificado en campo)",
		"Manantial (km 2.5, a 14 m del track; OSM, no verificado en campo)"
	],
	"water_points_geo": [
		{
			"name": "Font de la Vila",
			"kind": "fuente",
			"lat": 40.4569257,
			"lon": -0.13193,
			"km": 0,
			"dist_m": 30
		},
		{
			"name": null,
			"kind": "manantial",
			"lat": 40.4499289,
			"lon": -0.1260341,
			"km": 2.5,
			"dist_m": 14
		}
	],
	"pois": [
		{
			"name": "Mirador Ares del Maestrat",
			"type": "mirador",
			"lat": 40.4552747,
			"lon": -0.1317411,
			"km": 5.4,
			"dist_m": 87
		},
		{
			"name": "En record de les víctimes dels bombardejos de la Legió Cóndor",
			"type": "patrimonio",
			"lat": 40.4560077,
			"lon": -0.1310526,
			"km": 5.5,
			"dist_m": 11
		},
		{
			"name": "Alfredo Rovira Pitarch",
			"type": "patrimonio",
			"lat": 40.4560048,
			"lon": -0.1310445,
			"km": 5.5,
			"dist_m": 12
		}
	],
	"escape_routes": [],
	"highlights": [],
	"best_season": [],
	"best_start_time": null,
	"shade_ratio": 0,
	"gpx": "sl-cv-45.gpx",
	"links": {
		"femecv": "https://senders.femecv.com/es/sendero/ver/sl-cv-45",
		"wikiloc": null
	},
	"alternatives": [
		"gr-331-e15",
		"pr-cv-387",
		"sl-cv-46"
	],
	"notes_rain": null,
	"bbox": [
		-0.132246986031532,
		40.44631803408265,
		-0.122925974428654,
		40.45869299210608
	],
	"sources": [
		"Ficha FEMECV https://senders.femecv.com/es/sendero/ver/sl-cv-45 (crawl 2026-06-11): nombre, estado \"Sin controles de calidad\", distancia, desniveles, horario teórico, MIDE, modalidad, municipio, comarca",
		"OSM Overpass (enrich 2026-06-20): fuentes de agua, sombra estimada y alternativas por proximidad — no verificado en campo",
		"GPX sl-cv-45.gpx (derivados: inicio, bbox)"
	],
	"federacion": "FEMECV",
	"comunidad": "Comunitat Valenciana",
	"capabilities": {
		"estado": true,
		"mide": true,
		"agua": true,
		"etapas": true,
		"descripcion": true,
		"fauna": true,
		"escapes": true
	}
}
