{
	"water_points": [
		"Fuente (km 0.4, a 2 m del track; OSM, no verificado en campo)",
		"Manantial \"Urruskako  iturria\" (km 8.7, a 23 m del track; OSM, no verificado en campo)",
		"Manantial (km 10.6, a 15 m del track; OSM, no verificado en campo)",
		"Manantial (km 13.3, a 58 m del track; OSM, no verificado en campo)",
		"Manantial (km 14.9, a 38 m del track; OSM, no verificado en campo)",
		"Manantial (km 17.3, a 54 m del track; OSM, no verificado en campo)",
		"Manantial \"Source\" (km 30.4, a 9 m del track; OSM, no verificado en campo)",
		"Manantial \"Irubeko Ithurria\" (km 32.2, a 63 m del track; OSM, no verificado en campo)",
		"Fuente (km 34.0, a 13 m del track; OSM, no verificado en campo)",
		"Manantial (km 86.4, a 8 m del track; OSM, no verificado en campo)",
		"Fuente (km 86.8, a 22 m del track; OSM, no verificado en campo)",
		"Manantial (km 87.7, a 22 m del track; OSM, no verificado en campo)",
		"Manantial \"Trampa\" (km 88.2, a 15 m del track; OSM, no verificado en campo)",
		"Manantial (km 90.5, a 2 m del track; OSM, no verificado en campo)",
		"Manantial (km 90.8, a 3 m del track; OSM, no verificado en campo)"
	],
	"water_points_geo": [
		{
			"name": null,
			"kind": "fuente",
			"lat": 43.1459234,
			"lon": -1.5117865,
			"km": 0.4,
			"dist_m": 2
		},
		{
			"name": "Urruskako  iturria",
			"kind": "manantial",
			"lat": 43.1200737,
			"lon": -1.4402276,
			"km": 8.7,
			"dist_m": 23
		},
		{
			"name": null,
			"kind": "manantial",
			"lat": 43.1136201,
			"lon": -1.4293347,
			"km": 10.6,
			"dist_m": 15
		},
		{
			"name": null,
			"kind": "manantial",
			"lat": 43.1260418,
			"lon": -1.4193809,
			"km": 13.3,
			"dist_m": 58
		},
		{
			"name": null,
			"kind": "manantial",
			"lat": 43.136798,
			"lon": -1.4128486,
			"km": 14.9,
			"dist_m": 38
		},
		{
			"name": null,
			"kind": "manantial",
			"lat": 43.1539824,
			"lon": -1.4086136,
			"km": 17.3,
			"dist_m": 54
		},
		{
			"name": "Source",
			"kind": "manantial",
			"lat": 43.1909553,
			"lon": -1.3644667,
			"km": 30.4,
			"dist_m": 9
		},
		{
			"name": "Irubeko Ithurria",
			"kind": "manantial",
			"lat": 43.1863341,
			"lon": -1.3515876,
			"km": 32.2,
			"dist_m": 63
		},
		{
			"name": null,
			"kind": "fuente",
			"lat": 43.1789234,
			"lon": -1.3403293,
			"km": 34,
			"dist_m": 13
		},
		{
			"name": null,
			"kind": "manantial",
			"lat": 43.0942953,
			"lon": -1.4795614,
			"km": 86.4,
			"dist_m": 8
		},
		{
			"name": null,
			"kind": "fuente",
			"lat": 43.094358,
			"lon": -1.4832163,
			"km": 86.8,
			"dist_m": 22
		},
		{
			"name": null,
			"kind": "manantial",
			"lat": 43.0980769,
			"lon": -1.4924932,
			"km": 87.7,
			"dist_m": 22
		},
		{
			"name": "Trampa",
			"kind": "manantial",
			"lat": 43.101351,
			"lon": -1.4961354,
			"km": 88.2,
			"dist_m": 15
		},
		{
			"name": null,
			"kind": "manantial",
			"lat": 43.117805,
			"lon": -1.5026367,
			"km": 90.5,
			"dist_m": 2
		},
		{
			"name": null,
			"kind": "manantial",
			"lat": 43.1206772,
			"lon": -1.5021412,
			"km": 90.8,
			"dist_m": 3
		}
	],
	"pois": [
		{
			"name": "Irlintzi",
			"type": "patrimonio",
			"lat": 43.1428214,
			"lon": -1.4804434,
			"km": 3.9,
			"dist_m": 131
		},
		{
			"name": "Burga",
			"type": "patrimonio",
			"lat": 43.1296774,
			"lon": -1.4528201,
			"km": 6.8,
			"dist_m": 103
		},
		{
			"name": "Basagar",
			"type": "patrimonio",
			"lat": 43.1283532,
			"lon": -1.4513804,
			"km": 7,
			"dist_m": 40
		},
		{
			"name": "Lamizilo",
			"type": "patrimonio",
			"lat": 43.12536,
			"lon": -1.4463546,
			"km": 7.6,
			"dist_m": 98
		},
		{
			"name": "Lamizilo",
			"type": "patrimonio",
			"lat": 43.1256435,
			"lon": -1.4470751,
			"km": 7.6,
			"dist_m": 100
		},
		{
			"name": "Larremesko Kaskoa",
			"type": "cumbre",
			"lat": 43.1257965,
			"lon": -1.4470075,
			"km": 7.6,
			"dist_m": 118
		},
		{
			"name": "Errolan",
			"type": "patrimonio",
			"lat": 43.1249923,
			"lon": -1.4457724,
			"km": 7.7,
			"dist_m": 84
		},
		{
			"name": "Errolan",
			"type": "patrimonio",
			"lat": 43.1248318,
			"lon": -1.4448727,
			"km": 7.8,
			"dist_m": 93
		},
		{
			"name": "Mugarrien 117. zenbakia",
			"type": "patrimonio",
			"lat": 43.1121912,
			"lon": -1.438917,
			"km": 9.7,
			"dist_m": 3
		},
		{
			"name": "Urriska 1",
			"type": "patrimonio",
			"lat": 43.1133547,
			"lon": -1.4359083,
			"km": 10,
			"dist_m": 18
		},
		{
			"name": "Urriska 4",
			"type": "patrimonio",
			"lat": 43.1136523,
			"lon": -1.435892,
			"km": 10.1,
			"dist_m": 39
		},
		{
			"name": "Dolmen Urriska 3",
			"type": "patrimonio",
			"lat": 43.1139606,
			"lon": -1.4255929,
			"km": 10.9,
			"dist_m": 39
		},
		{
			"name": "Mugarrien 114. zenbakia",
			"type": "patrimonio",
			"lat": 43.1225324,
			"lon": -1.4260991,
			"km": 12.1,
			"dist_m": 2
		},
		{
			"name": "Mugarrien 112. zenbakia",
			"type": "patrimonio",
			"lat": 43.1268035,
			"lon": -1.419157,
			"km": 13.4,
			"dist_m": 3
		},
		{
			"name": "Mugarrien 111. zenbakia",
			"type": "patrimonio",
			"lat": 43.1333317,
			"lon": -1.414554,
			"km": 14.4,
			"dist_m": 7
		},
		{
			"name": "Mugarrien 110. zenbakia",
			"type": "patrimonio",
			"lat": 43.1349377,
			"lon": -1.4146949,
			"km": 14.6,
			"dist_m": 13
		},
		{
			"name": "Mugarrien 109. zenbakia",
			"type": "patrimonio",
			"lat": 43.136618,
			"lon": -1.4138654,
			"km": 14.9,
			"dist_m": 7
		},
		{
			"name": "Mugarrien 108. zenbakia",
			"type": "patrimonio",
			"lat": 43.1381829,
			"lon": -1.412022,
			"km": 15.1,
			"dist_m": 32
		},
		{
			"name": "Mugarrien 107. zenbakia",
			"type": "patrimonio",
			"lat": 43.1400497,
			"lon": -1.4114658,
			"km": 15.3,
			"dist_m": 113
		},
		{
			"name": "Mugarrien 104. zenbakia",
			"type": "patrimonio",
			"lat": 43.1452184,
			"lon": -1.4126228,
			"km": 15.9,
			"dist_m": 37
		},
		{
			"name": "Cromlech Arrigorriko Lepoa",
			"type": "patrimonio",
			"lat": 43.1501085,
			"lon": -1.4146939,
			"km": 16.6,
			"dist_m": 23
		},
		{
			"name": "Harrigorri",
			"type": "cumbre",
			"lat": 43.150483,
			"lon": -1.41292,
			"km": 16.7,
			"dist_m": 85
		},
		{
			"name": "Mugarrien 103. zenbakia",
			"type": "patrimonio",
			"lat": 43.1546486,
			"lon": -1.4088679,
			"km": 17.4,
			"dist_m": 11
		},
		{
			"name": "Mugarrien 102. zenbakia",
			"type": "patrimonio",
			"lat": 43.1556346,
			"lon": -1.4069356,
			"km": 17.6,
			"dist_m": 47
		},
		{
			"name": "Elorrieta 4",
			"type": "patrimonio",
			"lat": 43.155646,
			"lon": -1.406078,
			"km": 17.6,
			"dist_m": 109
		},
		{
			"name": "Mugarrien 98. zenbakia",
			"type": "patrimonio",
			"lat": 43.1606545,
			"lon": -1.4040092,
			"km": 18.2,
			"dist_m": 38
		},
		{
			"name": "Mugarrien 95. zenbakia",
			"type": "patrimonio",
			"lat": 43.1673621,
			"lon": -1.4028312,
			"km": 19.3,
			"dist_m": 124
		},
		{
			"name": "Arriurdin",
			"type": "cumbre",
			"lat": 43.168005,
			"lon": -1.3999177,
			"km": 19.4,
			"dist_m": 43
		},
		{
			"name": "Mugarrien 92. zenbakia",
			"type": "patrimonio",
			"lat": 43.1739095,
			"lon": -1.4025596,
			"km": 20.5,
			"dist_m": 140
		},
		{
			"name": "Mugarrien 91. zenbakia",
			"type": "patrimonio",
			"lat": 43.1753226,
			"lon": -1.4019846,
			"km": 20.6,
			"dist_m": 6
		},
		{
			"name": "Kuarteleko Kaskoa",
			"type": "cumbre",
			"lat": 43.1795425,
			"lon": -1.400293,
			"km": 21.2,
			"dist_m": 62
		},
		{
			"name": "Ttutturruko Kaskoa",
			"type": "cumbre",
			"lat": 43.1864306,
			"lon": -1.3902856,
			"km": 22.3,
			"dist_m": 59
		},
		{
			"name": "Aiguille",
			"type": "cumbre",
			"lat": 43.1918912,
			"lon": -1.3779248,
			"km": 28.9,
			"dist_m": 9
		},
		{
			"name": "Atsuametako borda",
			"type": "patrimonio",
			"lat": 43.1906461,
			"lon": -1.3676301,
			"km": 30.1,
			"dist_m": 28
		},
		{
			"name": "Monument aux Morts",
			"type": "patrimonio",
			"lat": 43.1776465,
			"lon": -1.3420287,
			"km": 34.2,
			"dist_m": 3
		},
		{
			"name": "Buztanzelai",
			"type": "cumbre",
			"lat": 43.1943265,
			"lon": -1.3866445,
			"km": 42.4,
			"dist_m": 2
		},
		{
			"name": "Pausogaizto Astate",
			"type": "patrimonio",
			"lat": 43.1972066,
			"lon": -1.3857958,
			"km": 42.7,
			"dist_m": 4
		},
		{
			"name": "Astate",
			"type": "cumbre",
			"lat": 43.1995437,
			"lon": -1.3828896,
			"km": 43.1,
			"dist_m": 4
		},
		{
			"name": "Atalazko Kaskoa",
			"type": "cumbre",
			"lat": 43.2030912,
			"lon": -1.3830151,
			"km": 43.5,
			"dist_m": 32
		},
		{
			"name": "Gapeluko Ateka / Tutulia",
			"type": "cumbre",
			"lat": 43.2155389,
			"lon": -1.3813879,
			"km": 45.2,
			"dist_m": 11
		},
		{
			"name": "Hego Iparla",
			"type": "cumbre",
			"lat": 43.2237381,
			"lon": -1.3831187,
			"km": 46.3,
			"dist_m": 14
		},
		{
			"name": "Tuturruko Kaskoa",
			"type": "cumbre",
			"lat": 43.2245063,
			"lon": -1.3825731,
			"km": 46.4,
			"dist_m": 22
		},
		{
			"name": "Erdibideko Iparla",
			"type": "cumbre",
			"lat": 43.226097,
			"lon": -1.3799184,
			"km": 46.7,
			"dist_m": 17
		},
		{
			"name": "Mugarrien 90. zenbakia",
			"type": "patrimonio",
			"lat": 43.2282488,
			"lon": -1.3783706,
			"km": 47,
			"dist_m": 5
		},
		{
			"name": "Iparla",
			"type": "cumbre",
			"lat": 43.2282304,
			"lon": -1.3783628,
			"km": 47,
			"dist_m": 7
		},
		{
			"name": "Iparlako Kaskoa / Pic d'Iparla",
			"type": "cumbre",
			"lat": 43.228228,
			"lon": -1.3783429,
			"km": 47,
			"dist_m": 8
		},
		{
			"name": "Juan batista Zelai Gurutzea",
			"type": "patrimonio",
			"lat": 43.231755,
			"lon": -1.378373,
			"km": 47.4,
			"dist_m": 2
		},
		{
			"name": "Mugarrien 90. zenbakia",
			"type": "patrimonio",
			"lat": 43.2320565,
			"lon": -1.3781908,
			"km": 47.4,
			"dist_m": 6
		},
		{
			"name": "Larrateko Egia",
			"type": "cumbre",
			"lat": 43.234947,
			"lon": -1.3749904,
			"km": 47.9,
			"dist_m": 73
		},
		{
			"name": "Talatze",
			"type": "cumbre",
			"lat": 43.2383136,
			"lon": -1.3717649,
			"km": 48.3,
			"dist_m": 10
		},
		{
			"name": "Ruine Cabane",
			"type": "patrimonio",
			"lat": 43.241688,
			"lon": -1.3736639,
			"km": 48.8,
			"dist_m": 36
		},
		{
			"name": "Monolithe d'Iparla",
			"type": "patrimonio",
			"lat": 43.2470206,
			"lon": -1.3683506,
			"km": 49.5,
			"dist_m": 30
		},
		{
			"name": "Dolmen Berdaritz",
			"type": "patrimonio",
			"lat": 43.1120187,
			"lon": -1.4392328,
			"km": 81.3,
			"dist_m": 9
		},
		{
			"name": "Berdaritz",
			"type": "patrimonio",
			"lat": 43.1121302,
			"lon": -1.4395696,
			"km": 81.3,
			"dist_m": 20
		},
		{
			"name": "Cromlech Berdaritz",
			"type": "patrimonio",
			"lat": 43.1116605,
			"lon": -1.4406237,
			"km": 81.5,
			"dist_m": 35
		},
		{
			"name": "Mugarrien 119. zenbakia",
			"type": "patrimonio",
			"lat": 43.1076253,
			"lon": -1.4407463,
			"km": 81.9,
			"dist_m": 8
		},
		{
			"name": "120",
			"type": "patrimonio",
			"lat": 43.1072532,
			"lon": -1.442743,
			"km": 82.1,
			"dist_m": 13
		},
		{
			"name": "Mugarrien 121. zenbakia",
			"type": "patrimonio",
			"lat": 43.1056128,
			"lon": -1.447051,
			"km": 82.7,
			"dist_m": 137
		},
		{
			"name": "Zarkindegi",
			"type": "cumbre",
			"lat": 43.1043357,
			"lon": -1.450309,
			"km": 83,
			"dist_m": 80
		},
		{
			"name": "Laztegi",
			"type": "cumbre",
			"lat": 43.1036656,
			"lon": -1.4516049,
			"km": 83.1,
			"dist_m": 40
		},
		{
			"name": "122",
			"type": "patrimonio",
			"lat": 43.103673,
			"lon": -1.4516429,
			"km": 83.2,
			"dist_m": 37
		},
		{
			"name": "Mugarrien 122. zenbakia",
			"type": "patrimonio",
			"lat": 43.1019995,
			"lon": -1.4518526,
			"km": 83.3,
			"dist_m": 71
		},
		{
			"name": "Mugarrien 123. zenbakia",
			"type": "patrimonio",
			"lat": 43.0993209,
			"lon": -1.4572987,
			"km": 83.9,
			"dist_m": 57
		},
		{
			"name": "Mugarrien 124. zenbakia",
			"type": "patrimonio",
			"lat": 43.0981588,
			"lon": -1.4629403,
			"km": 84.6,
			"dist_m": 117
		},
		{
			"name": "Eihartzeko Kaskoa",
			"type": "cumbre",
			"lat": 43.0979153,
			"lon": -1.4628339,
			"km": 84.6,
			"dist_m": 132
		},
		{
			"name": "Mugarrien 125. zenbakia",
			"type": "patrimonio",
			"lat": 43.0967328,
			"lon": -1.4648317,
			"km": 84.7,
			"dist_m": 21
		},
		{
			"name": "Mugarrien 126. zenbakia",
			"type": "patrimonio",
			"lat": 43.0926276,
			"lon": -1.4698137,
			"km": 85.4,
			"dist_m": 4
		},
		{
			"name": "Menhir Argibel 1",
			"type": "patrimonio",
			"lat": 43.0924498,
			"lon": -1.4699706,
			"km": 85.4,
			"dist_m": 7
		},
		{
			"name": "Menhir Argibel 2",
			"type": "patrimonio",
			"lat": 43.0925472,
			"lon": -1.4697213,
			"km": 85.4,
			"dist_m": 15
		},
		{
			"name": "Argibel",
			"type": "cumbre",
			"lat": 43.0933202,
			"lon": -1.4699592,
			"km": 85.4,
			"dist_m": 71
		},
		{
			"name": "Argibel 1-3",
			"type": "patrimonio",
			"lat": 43.0917939,
			"lon": -1.4707954,
			"km": 85.5,
			"dist_m": 14
		},
		{
			"name": "Argibelgo Lepoa",
			"type": "patrimonio",
			"lat": 43.0910063,
			"lon": -1.4714256,
			"km": 85.6,
			"dist_m": 11
		},
		{
			"name": "Zagua",
			"type": "patrimonio",
			"lat": 43.0929708,
			"lon": -1.4766624,
			"km": 86.1,
			"dist_m": 27
		},
		{
			"name": "Zagua",
			"type": "patrimonio",
			"lat": 43.093136,
			"lon": -1.4775471,
			"km": 86.2,
			"dist_m": 57
		},
		{
			"name": "Irurita Barrengo",
			"type": "patrimonio",
			"lat": 43.095119,
			"lon": -1.477312,
			"km": 86.3,
			"dist_m": 143
		},
		{
			"name": "Turreiko Aska",
			"type": "patrimonio",
			"lat": 43.1014623,
			"lon": -1.4962895,
			"km": 88.2,
			"dist_m": 20
		}
	],
	"shade_ratio": 0.06,
	"alternatives": [
		"na-gr-11"
	],
	"enriched_at": "2026-06-30T14:47:38.434Z",
	"method": "OSM Overpass: fuentes/manantiales a ≤100 m del track (con coordenadas); POIs (mirador/cumbre/patrimonio/refugio) a ≤150 m; sombra = % de puntos del track bajo polígonos natural=wood/landuse=forest (estimación a la baja, multipolígonos omitidos)"
}
