{
	"water_points": [
		"Fuente (km 0.3, a 40 m del track; OSM, no verificado en campo)",
		"Fuente (km 4.8, a 77 m del track; OSM, no verificado en campo)",
		"Manantial \"Fuente del Agua Salada\" (km 5.4, a 49 m del track; OSM, no verificado en campo)",
		"Fuente (km 16.1, a 70 m del track; OSM, no verificado en campo)"
	],
	"water_points_geo": [
		{
			"name": null,
			"kind": "fuente",
			"lat": 42.6715142,
			"lon": -2.0250916,
			"km": 0.3,
			"dist_m": 40
		},
		{
			"name": null,
			"kind": "fuente",
			"lat": 42.6678228,
			"lon": -2.0354873,
			"km": 4.8,
			"dist_m": 77
		},
		{
			"name": "Fuente del Agua Salada",
			"kind": "manantial",
			"lat": 42.668978,
			"lon": -2.0379133,
			"km": 5.4,
			"dist_m": 49
		},
		{
			"name": null,
			"kind": "fuente",
			"lat": 42.6695047,
			"lon": -2.0237877,
			"km": 16.1,
			"dist_m": 70
		}
	],
	"pois": [
		{
			"name": "Puente de la Cárcel",
			"type": "patrimonio",
			"lat": 42.6701903,
			"lon": -2.0271331,
			"km": 0,
			"dist_m": 12
		},
		{
			"name": "Calleja del Chapitel",
			"type": "patrimonio",
			"lat": 42.6706572,
			"lon": -2.0288983,
			"km": 0.1,
			"dist_m": 149
		},
		{
			"name": "Lizarrara",
			"type": "cumbre",
			"lat": 42.6691477,
			"lon": -2.0285118,
			"km": 3.4,
			"dist_m": 84
		},
		{
			"name": "Zalatambor",
			"type": "patrimonio",
			"lat": 42.6680596,
			"lon": -2.0283657,
			"km": 3.5,
			"dist_m": 38
		},
		{
			"name": "Zalatambor",
			"type": "cumbre",
			"lat": 42.6678191,
			"lon": -2.0287005,
			"km": 3.5,
			"dist_m": 45
		},
		{
			"name": "Fuente de los Chorros",
			"type": "patrimonio",
			"lat": 42.6696648,
			"lon": -2.0294479,
			"km": 4.2,
			"dist_m": 99
		},
		{
			"name": "Puerta de Castilla",
			"type": "patrimonio",
			"lat": 42.6682334,
			"lon": -2.0306454,
			"km": 4.3,
			"dist_m": 5
		},
		{
			"name": "Peñaguda",
			"type": "cumbre",
			"lat": 42.6772006,
			"lon": -2.027567,
			"km": 10.5,
			"dist_m": 133
		},
		{
			"name": "San Millán",
			"type": "cumbre",
			"lat": 42.6834372,
			"lon": -2.0220851,
			"km": 11.6,
			"dist_m": 1
		},
		{
			"name": "Alto de Gurugú",
			"type": "cumbre",
			"lat": 42.6771387,
			"lon": -2.011172,
			"km": 13.7,
			"dist_m": 136
		}
	],
	"shade_ratio": 0.56,
	"alternatives": [],
	"enriched_at": "2026-06-30T14:59:08.244Z",
	"method": "OSM Overpass: fuentes/manantiales a ≤100 m del track (con coordenadas); POIs (mirador/cumbre/patrimonio/refugio) a ≤150 m; sombra = % de puntos del track bajo polígonos natural=wood/landuse=forest (estimación a la baja, multipolígonos omitidos)"
}
