{
	"water_points": [
		"Fuente \"Font d'Enmig\" (km 0.1, a 75 m del track; OSM, no verificado en campo)",
		"Fuente \"la Fonteta\" (km 0.1, a 83 m del track; OSM, no verificado en campo)",
		"Fuente \"Font del Raval\" (km 0.3, a 23 m del track; OSM, no verificado en campo)",
		"Fuente \"Font del Molí\" (km 0.3, a 88 m del track; OSM, no verificado en campo)",
		"Fuente \"Font de l'Assut\" (km 0.4, a 83 m del track; OSM, no verificado en campo)",
		"Fuente (km 1.3, a 46 m del track; OSM, no verificado en campo)"
	],
	"water_points_geo": [
		{
			"name": "Font d'Enmig",
			"kind": "fuente",
			"lat": 38.7801563,
			"lon": -0.5155994,
			"km": 0.1,
			"dist_m": 75
		},
		{
			"name": "la Fonteta",
			"kind": "fuente",
			"lat": 38.7793167,
			"lon": -0.5154166,
			"km": 0.1,
			"dist_m": 83
		},
		{
			"name": "Font del Molí",
			"kind": "fuente",
			"lat": 38.7778455,
			"lon": -0.5156064,
			"km": 0.3,
			"dist_m": 88
		},
		{
			"name": "Font del Raval",
			"kind": "fuente",
			"lat": 38.7784096,
			"lon": -0.5164422,
			"km": 0.3,
			"dist_m": 23
		},
		{
			"name": "Font de l'Assut",
			"kind": "fuente",
			"lat": 38.7776669,
			"lon": -0.51553,
			"km": 0.4,
			"dist_m": 83
		},
		{
			"name": null,
			"kind": "fuente",
			"lat": 38.7745157,
			"lon": -0.524713,
			"km": 1.3,
			"dist_m": 46
		}
	],
	"pois": [
		{
			"name": "Alt de la Cava",
			"type": "cumbre",
			"lat": 38.7661931,
			"lon": -0.5342672,
			"km": 3.8,
			"dist_m": 88
		}
	],
	"shade_ratio": 0.68,
	"alternatives": [
		"sl-cv-168",
		"pr-cv-27",
		"pr-cv-389"
	],
	"enriched_at": "2026-06-20T08:58:35.725Z",
	"method": "OSM Overpass: fuentes/manantiales a ≤100 m del track (con coordenadas); POIs (mirador/cumbre/patrimonio/refugio) a ≤150 m; sombra = % de puntos del track bajo polígonos natural=wood/landuse=forest (estimación a la baja, multipolígonos omitidos)"
}
