{
	"water_points": [
		"Manantial \"Font Vella\" (km 1.6, a 7 m del track; OSM, no verificado en campo)",
		"Fuente (km 2.0, a 37 m del track; OSM, no verificado en campo)",
		"Manantial \"Font d'Espetla\" (km 15.5, a 5 m del track; OSM, no verificado en campo)",
		"Fuente (km 19.0, a 80 m del track; OSM, no verificado en campo)",
		"Manantial \"Font del Xorro\" (km 19.5, a 71 m del track; OSM, no verificado en campo)",
		"Manantial \"Font de la Retura\" (km 22.9, a 3 m del track; OSM, no verificado en campo)",
		"Manantial \"Font Nova\" (km 23.1, a 3 m del track; OSM, no verificado en campo)",
		"Manantial \"Font dels Olbits\" (km 25.3, a 21 m del track; OSM, no verificado en campo)",
		"Manantial \"Font Nova\" (km 28.0, a 36 m del track; OSM, no verificado en campo)",
		"Fuente (km 28.0, a 13 m del track; OSM, no verificado en campo)",
		"Manantial \"Font dels Noguerets\" (km 28.4, a 48 m del track; OSM, no verificado en campo)",
		"Manantial \"Font de l'Esperit Sant\" (km 30.2, a 7 m del track; OSM, no verificado en campo)",
		"Manantial \"Font del Raval\" (km 33.7, a 26 m del track; OSM, no verificado en campo)"
	],
	"water_points_geo": [
		{
			"name": "Font Vella",
			"kind": "manantial",
			"lat": 38.7547117,
			"lon": -0.2775483,
			"km": 1.6,
			"dist_m": 7
		},
		{
			"name": null,
			"kind": "fuente",
			"lat": 38.7570079,
			"lon": -0.2749244,
			"km": 2,
			"dist_m": 37
		},
		{
			"name": "Font d'Espetla",
			"kind": "manantial",
			"lat": 38.7479022,
			"lon": -0.1929192,
			"km": 15.5,
			"dist_m": 5
		},
		{
			"name": null,
			"kind": "fuente",
			"lat": 38.7247573,
			"lon": -0.1943904,
			"km": 19,
			"dist_m": 80
		},
		{
			"name": "Font del Xorro",
			"kind": "manantial",
			"lat": 38.7265212,
			"lon": -0.1971756,
			"km": 19.5,
			"dist_m": 71
		},
		{
			"name": "Font de la Retura",
			"kind": "manantial",
			"lat": 38.7225109,
			"lon": -0.2189926,
			"km": 22.9,
			"dist_m": 3
		},
		{
			"name": "Font Nova",
			"kind": "manantial",
			"lat": 38.7217156,
			"lon": -0.2183158,
			"km": 23.1,
			"dist_m": 3
		},
		{
			"name": "Font dels Olbits",
			"kind": "manantial",
			"lat": 38.7206216,
			"lon": -0.227212,
			"km": 25.3,
			"dist_m": 21
		},
		{
			"name": "Font Nova",
			"kind": "manantial",
			"lat": 38.730756,
			"lon": -0.2459626,
			"km": 28,
			"dist_m": 36
		},
		{
			"name": null,
			"kind": "fuente",
			"lat": 38.7309838,
			"lon": -0.24608,
			"km": 28,
			"dist_m": 13
		},
		{
			"name": "Font dels Noguerets",
			"kind": "manantial",
			"lat": 38.732427,
			"lon": -0.2486977,
			"km": 28.4,
			"dist_m": 48
		},
		{
			"name": "Font de l'Esperit Sant",
			"kind": "manantial",
			"lat": 38.7335404,
			"lon": -0.2668657,
			"km": 30.2,
			"dist_m": 7
		},
		{
			"name": "Font del Raval",
			"kind": "manantial",
			"lat": 38.7481126,
			"lon": -0.2912868,
			"km": 33.7,
			"dist_m": 26
		}
	],
	"pois": [
		{
			"name": "Penya Aledra",
			"type": "cumbre",
			"lat": 38.7603133,
			"lon": -0.2367867,
			"km": 6,
			"dist_m": 75
		},
		{
			"name": "Penya Calera",
			"type": "cumbre",
			"lat": 38.7594651,
			"lon": -0.2360711,
			"km": 6.1,
			"dist_m": 60
		},
		{
			"name": "Penya de la Cova",
			"type": "cumbre",
			"lat": 38.7582627,
			"lon": -0.2359982,
			"km": 6.1,
			"dist_m": 64
		},
		{
			"name": "Pintures Rupestres del Pla de Petracos",
			"type": "patrimonio",
			"lat": 38.7603702,
			"lon": -0.1833988,
			"km": 12.8,
			"dist_m": 99
		},
		{
			"name": "Algepsar del Sabre",
			"type": "patrimonio",
			"lat": 38.7253533,
			"lon": -0.2139357,
			"km": 21.5,
			"dist_m": 10
		},
		{
			"name": "Jaciment de la Salema",
			"type": "patrimonio",
			"lat": 38.7392769,
			"lon": -0.2767072,
			"km": 31.4,
			"dist_m": 22
		}
	],
	"shade_ratio": 0.07,
	"alternatives": [
		"pr-cv-182",
		"pr-cv-23",
		"pr-cv-24"
	],
	"enriched_at": "2026-06-20T09:14:27.920Z",
	"method": "OSM Overpass: fuentes/manantiales a ≤100 m del track (con coordenadas); POIs (mirador/cumbre/patrimonio/refugio) a ≤150 m; sombra = % de puntos del track bajo polígonos natural=wood/landuse=forest (estimación a la baja, multipolígonos omitidos)"
}
