{
	"water_points": [
		"Manantial \"Font de l'Orpinell\" (km 1.7, a 2 m del track; OSM, no verificado en campo)",
		"Fuente (km 6.9, a 15 m del track; OSM, no verificado en campo)"
	],
	"water_points_geo": [
		{
			"name": "Font de l'Orpinell",
			"kind": "manantial",
			"lat": 40.7059788,
			"lon": -0.0705622,
			"km": 1.7,
			"dist_m": 2
		},
		{
			"name": null,
			"kind": "fuente",
			"lat": 40.7265909,
			"lon": -0.0820473,
			"km": 6.9,
			"dist_m": 15
		}
	],
	"pois": [
		{
			"name": "Santa Creu",
			"type": "patrimonio",
			"lat": 40.7230884,
			"lon": -0.0809392,
			"km": 6.5,
			"dist_m": 66
		},
		{
			"name": "Ermita de Sant Josep",
			"type": "patrimonio",
			"lat": 40.7236451,
			"lon": -0.0820933,
			"km": 6.6,
			"dist_m": 31
		},
		{
			"name": "Mirador de l'Esglèsia",
			"type": "mirador",
			"lat": 40.7270306,
			"lon": -0.0820836,
			"km": 7,
			"dist_m": 31
		}
	],
	"shade_ratio": 0.23,
	"alternatives": [
		"pr-cv-373",
		"pr-cv-375",
		"pr-cv-374"
	],
	"enriched_at": "2026-06-20T09:34:38.319Z",
	"method": "OSM Overpass: fuentes/manantiales a ≤100 m del track (con coordenadas); POIs (mirador/cumbre/patrimonio/refugio) a ≤150 m; sombra = % de puntos del track bajo polígonos natural=wood/landuse=forest (estimación a la baja, multipolígonos omitidos)"
}
