{
	"water_points": [
		"Manantial \"Fuente Negra\" (km 0.0, a 15 m del track; OSM, no verificado en campo)",
		"Fuente (km 2.3, a 15 m del track; OSM, no verificado en campo)",
		"Fuente (km 2.7, a 8 m del track; OSM, no verificado en campo)",
		"Fuente (km 3.0, a 58 m del track; OSM, no verificado en campo)",
		"Fuente \"Fuente Los Chopos\" (km 3.3, a 11 m del track; OSM, no verificado en campo)",
		"Fuente (km 4.5, a 5 m del track; OSM, no verificado en campo)",
		"Manantial \"Fuente del Abrullador\" (km 6.5, a 13 m del track; OSM, no verificado en campo)"
	],
	"water_points_geo": [
		{
			"name": "Fuente Negra",
			"kind": "manantial",
			"lat": 39.0272017,
			"lon": -0.6495571,
			"km": 0,
			"dist_m": 15
		},
		{
			"name": null,
			"kind": "fuente",
			"lat": 39.0419115,
			"lon": -0.6573492,
			"km": 2.3,
			"dist_m": 15
		},
		{
			"name": null,
			"kind": "fuente",
			"lat": 39.0452376,
			"lon": -0.6600766,
			"km": 2.7,
			"dist_m": 8
		},
		{
			"name": null,
			"kind": "fuente",
			"lat": 39.0471133,
			"lon": -0.6620187,
			"km": 3,
			"dist_m": 58
		},
		{
			"name": "Fuente Los Chopos",
			"kind": "fuente",
			"lat": 39.0458104,
			"lon": -0.6633552,
			"km": 3.3,
			"dist_m": 11
		},
		{
			"name": null,
			"kind": "fuente",
			"lat": 39.0426742,
			"lon": -0.6710159,
			"km": 4.5,
			"dist_m": 5
		},
		{
			"name": "Fuente del Abrullador",
			"kind": "manantial",
			"lat": 39.0371814,
			"lon": -0.6894503,
			"km": 6.5,
			"dist_m": 13
		}
	],
	"pois": [
		{
			"name": "Las Simicas",
			"type": "mirador",
			"lat": 39.0346841,
			"lon": -0.650555,
			"km": 1.1,
			"dist_m": 17
		},
		{
			"name": "Mirador del Salto de Chella",
			"type": "mirador",
			"lat": 39.0454193,
			"lon": -0.6600673,
			"km": 2.7,
			"dist_m": 6
		}
	],
	"shade_ratio": 0.25,
	"alternatives": [
		"gr-332-e01",
		"gr-332",
		"sl-cv-6"
	],
	"enriched_at": "2026-06-20T09:00:13.236Z",
	"method": "OSM Overpass: fuentes/manantiales a ≤100 m del track (con coordenadas); POIs (mirador/cumbre/patrimonio/refugio) a ≤150 m; sombra = % de puntos del track bajo polígonos natural=wood/landuse=forest (estimación a la baja, multipolígonos omitidos)"
}
