{
	"water_points": [
		"Fuente (km 0.2, a 6 m del track; OSM, no verificado en campo)",
		"Fuente (km 0.6, a 92 m del track; OSM, no verificado en campo)",
		"Fuente (km 0.7, a 13 m del track; OSM, no verificado en campo)",
		"Fuente (km 7.9, a 53 m del track; OSM, no verificado en campo)",
		"Manantial \"Font de Sant Vicent de Baix\" (km 19.6, a 8 m del track; OSM, no verificado en campo)"
	],
	"water_points_geo": [
		{
			"name": null,
			"kind": "fuente",
			"lat": 40.0763962,
			"lon": -0.2116773,
			"km": 0.2,
			"dist_m": 6
		},
		{
			"name": null,
			"kind": "fuente",
			"lat": 40.0770916,
			"lon": -0.2146434,
			"km": 0.6,
			"dist_m": 92
		},
		{
			"name": null,
			"kind": "fuente",
			"lat": 40.0754126,
			"lon": -0.21627,
			"km": 0.7,
			"dist_m": 13
		},
		{
			"name": null,
			"kind": "fuente",
			"lat": 40.0664706,
			"lon": -0.2750393,
			"km": 7.9,
			"dist_m": 53
		},
		{
			"name": "Font de Sant Vicent de Baix",
			"kind": "manantial",
			"lat": 40.0845226,
			"lon": -0.218243,
			"km": 19.6,
			"dist_m": 8
		}
	],
	"pois": [
		{
			"name": "Tossalet de Roda-soques",
			"type": "cumbre",
			"lat": 40.0691025,
			"lon": -0.2433176,
			"km": 3.6,
			"dist_m": 142
		},
		{
			"name": "Tossal de Roc",
			"type": "cumbre",
			"lat": 40.0927283,
			"lon": -0.2602613,
			"km": 12.8,
			"dist_m": 55
		},
		{
			"name": "Torremundo",
			"type": "cumbre",
			"lat": 40.0957614,
			"lon": -0.2586508,
			"km": 13.3,
			"dist_m": 2
		},
		{
			"name": "Forn del Poero",
			"type": "patrimonio",
			"lat": 40.0822087,
			"lon": -0.2167508,
			"km": 20,
			"dist_m": 72
		},
		{
			"name": "Mina de Cabres",
			"type": "patrimonio",
			"lat": 40.1006081,
			"lon": -0.1979457,
			"km": 25,
			"dist_m": 7
		},
		{
			"name": "Castell de l'Alcalatén",
			"type": "patrimonio",
			"lat": 40.0925079,
			"lon": -0.1969466,
			"km": 27.9,
			"dist_m": 103
		}
	],
	"shade_ratio": 0.05,
	"alternatives": [
		"pr-cv-357",
		"sl-cv-90",
		"pr-cv-341"
	],
	"enriched_at": "2026-06-20T09:03:51.331Z",
	"method": "OSM Overpass: fuentes/manantiales a ≤100 m del track (con coordenadas); POIs (mirador/cumbre/patrimonio/refugio) a ≤150 m; sombra = % de puntos del track bajo polígonos natural=wood/landuse=forest (estimación a la baja, multipolígonos omitidos)"
}
