{
	"water_points": [
		"Manantial \"Fuente Belata\" (km 5.4, a 5 m del track; OSM, no verificado en campo)",
		"Manantial \"Fonteta del Poll\" (km 6.6, a 6 m del track; OSM, no verificado en campo)",
		"Fuente (km 8.7, a 7 m del track; OSM, no verificado en campo)",
		"Manantial \"Font de la Cava\" (km 9.3, a 4 m del track; OSM, no verificado en campo)",
		"Manantial \"Font del Frare\" (km 9.5, a 10 m del track; OSM, no verificado en campo)",
		"Manantial \"Fuente de Tristán\" (km 16.5, a 13 m del track; OSM, no verificado en campo)"
	],
	"water_points_geo": [
		{
			"name": "Fuente Belata",
			"kind": "manantial",
			"lat": 39.7233634,
			"lon": -0.5142187,
			"km": 5.4,
			"dist_m": 5
		},
		{
			"name": "Fonteta del Poll",
			"kind": "manantial",
			"lat": 39.7176611,
			"lon": -0.5226941,
			"km": 6.6,
			"dist_m": 6
		},
		{
			"name": null,
			"kind": "fuente",
			"lat": 39.7025831,
			"lon": -0.5310569,
			"km": 8.7,
			"dist_m": 7
		},
		{
			"name": "Font de la Cava",
			"kind": "manantial",
			"lat": 39.7038864,
			"lon": -0.5258698,
			"km": 9.3,
			"dist_m": 4
		},
		{
			"name": "Font del Frare",
			"kind": "manantial",
			"lat": 39.7035412,
			"lon": -0.5235689,
			"km": 9.5,
			"dist_m": 10
		},
		{
			"name": "Fuente de Tristán",
			"kind": "manantial",
			"lat": 39.7352788,
			"lon": -0.480763,
			"km": 16.5,
			"dist_m": 13
		}
	],
	"pois": [
		{
			"name": "Aljub del Castellet",
			"type": "patrimonio",
			"lat": 39.7166476,
			"lon": -0.521425,
			"km": 6.7,
			"dist_m": 87
		}
	],
	"shade_ratio": 0.1,
	"alternatives": [
		"sl-cv-129",
		"gr-10-e04",
		"pr-cv-260"
	],
	"enriched_at": "2026-06-20T09:48:53.188Z",
	"method": "OSM Overpass: fuentes/manantiales a ≤100 m del track (con coordenadas); POIs (mirador/cumbre/patrimonio/refugio) a ≤150 m; sombra = % de puntos del track bajo polígonos natural=wood/landuse=forest (estimación a la baja, multipolígonos omitidos)"
}
