{
	"water_points": [
		"Manantial \"les Fontanelles\" (km 0.1, a 11 m del track; OSM, no verificado en campo)",
		"Manantial \"Font de la Mina\" (km 0.3, a 7 m del track; OSM, no verificado en campo)",
		"Manantial \"Font de la Llosa\" (km 4.8, a 65 m del track; OSM, no verificado en campo)",
		"Manantial (km 6.4, a 7 m del track; OSM, no verificado en campo)",
		"Manantial \"Font del Cocó\" (km 6.9, a 5 m del track; OSM, no verificado en campo)",
		"Manantial \"Font de la Teuleria\" (km 10.6, a 4 m del track; OSM, no verificado en campo)"
	],
	"water_points_geo": [
		{
			"name": "les Fontanelles",
			"kind": "manantial",
			"lat": 40.3376324,
			"lon": -0.1622221,
			"km": 0.1,
			"dist_m": 11
		},
		{
			"name": "Font de la Mina",
			"kind": "manantial",
			"lat": 40.3385708,
			"lon": -0.1597425,
			"km": 0.3,
			"dist_m": 7
		},
		{
			"name": "Font de la Llosa",
			"kind": "manantial",
			"lat": 40.3418819,
			"lon": -0.1278838,
			"km": 4.8,
			"dist_m": 65
		},
		{
			"name": null,
			"kind": "manantial",
			"lat": 40.3407235,
			"lon": -0.1325827,
			"km": 6.4,
			"dist_m": 7
		},
		{
			"name": "Font del Cocó",
			"kind": "manantial",
			"lat": 40.3394982,
			"lon": -0.1354706,
			"km": 6.9,
			"dist_m": 5
		},
		{
			"name": "Font de la Teuleria",
			"kind": "manantial",
			"lat": 40.3342016,
			"lon": -0.1588947,
			"km": 10.6,
			"dist_m": 4
		}
	],
	"pois": [
		{
			"name": "Tossal del Mas de la Cova",
			"type": "cumbre",
			"lat": 40.3450477,
			"lon": -0.1265574,
			"km": 4.4,
			"dist_m": 98
		},
		{
			"name": "el Peiró",
			"type": "patrimonio",
			"lat": 40.3372645,
			"lon": -0.1629625,
			"km": 11.2,
			"dist_m": 7
		}
	],
	"shade_ratio": 0.14,
	"alternatives": [
		"gr-7-e29",
		"pr-cv-1",
		"pr-cv-225"
	],
	"enriched_at": "2026-06-20T09:27:53.428Z",
	"method": "OSM Overpass: fuentes/manantiales a ≤100 m del track (con coordenadas); POIs (mirador/cumbre/patrimonio/refugio) a ≤150 m; sombra = % de puntos del track bajo polígonos natural=wood/landuse=forest (estimación a la baja, multipolígonos omitidos)"
}
